Session Time,GPS Fix Quality,Number of Satellites,GPS Date & Time,Latitude (deg),Longitude (deg),GPS Altitude (feet),Ground Speed (knots),Ground Track (deg),Mag Var (deg),Cross Track Error (NM),Destination Waypoint ID,Range to Destination (NM),Bearing to Destination (deg),System Time,Pitch (deg),Roll (deg),Magnetic Heading (deg),Indicated Airspeed (knots),Pressure Altitude (ft),Turn Rate (deg/s),Lateral Accel (g),Vertical Accel(g),Angle of Attack (%),Vertical Speed (ft/min),OAT (deg C),True Airspeed (knots),Barometer Setting (inHg),Density Altitude (ft),Wind Direction (deg),Wind Speed (knots),Heading Bug (deg),Altitude Bug (ft),Airspeed Bug (knots),Vertical Speed Bug (ft/min),Course (deg),CDI Source Type,CDI Source Port,CDI Scale (NM),CDI Deflection (%),Glideslope (%),AP Engaged,AP Roll Mode,AP Roll Force,AP Roll Position (steps),AP Roll Slip (bool),AP Pitch Force,AP Pitch Position (steps),AP Pitch Slip (bool),AP Yaw Force,AP Yaw Position,AP Yaw Slip (bool),Transponder Status,Transponder Reply (bool),Transponder Identing (bool),Transponder Code (octal),Oil Pressure (PSI),Oil Temp (deg C),RPM L,RPM R,Manifold Pressure (inHg),Fuel Flow 1 (gal/hr),Fuel Flow 2 (gal/hr),Total Fuel Flow (gal/hr),Fuel Pressure (PSI),Fuel Level L (gal),Fuel Level R (gal),Fuel Remaining (gal),Volts 1,Volts 2,Amps,Hobbs Time,Tach Time,Thermocouple 1 (deg C),Thermocouple 2 (deg C),Thermocouple 3 (deg C),Thermocouple 4 (deg C),Thermocouple 5 (deg C),Thermocouple 6 (deg C),Thermocouple 7 (deg C),Thermocouple 8 (deg C),Thermocouple 9 (deg C),EGT 2 (deg C),Thermocouple 11 (deg C),EGT 1 (deg C),Thermocouple 13 (deg C),Thermocouple 14 (deg C),CHT 1 TEMPERATURE (deg C),CHT 2 TEMPERATURE (deg C),ELEV POSITION (%),FUEL PRESSURE (PSI),PHEAT CONTACT (V),GP Input 6,GP Input 7,GP Input 8,GP Input 9,GP Input 10,OIL PRESSURE (PSI),OIL TEMPERATURE (deg C),GP Input 13,Contacts,Percent Power,EGT Leaning State,
0.06,,,,,,,,,+0.0,,,,,10:24:22,,,,,,,,,,,,,,,,,138,,101.0,+0,,0,0,,,,,,,,,,,,,,,,,,,,,,,,,,,,,,18.5,,,,188.7,140.1,,,,,,,,,,,,,,,,,,,,,,,,,,,,,,,
1.06,1,12,2022-09-24 10:24:22,+55.36721,+10.03029,200,0.0,355.4,-3.8,,,,,10:24:21,,,,,,,,,,,,,,,,,138,,101.0,+0,,0,0,,,,,,,,,,,,,,,3,0,0,"7000",,,,,,,,,,,,18.5,,,,188.7,140.1,,,,,,,,,,,,,,,,,,,,,,,,,,,,,,,
2.06,1,12,2022-09-24 10:24:23,+55.36721,+10.03029,200,0.0,355.4,-3.8,,,,,10:24:22,,,,,,,,,,,,,,,,,138,,101.0,+0,,0,0,,,,,,,,,,,,,,,3,0,0,"7000",,,,,,,,,,,,18.5,,,,188.7,140.1,,,,,,,,,,,,,,,,,,,,,,,,,,,,,,,
3.06,1,12,2022-09-24 10:24:24,+55.36721,+10.03029,200,0.0,355.4,-3.8,,,,,10:24:23,,,,,,,,,,,,,,,,,138,,101.0,+0,,0,0,,,,,,,,,,,,,,,3,0,0,"7000",,,,,,,,,,,,18.5,,,,188.7,140.1,,,,,,,,,,,,,,,,,,,,,,,,,,,,,,,
4.06,1,12,2022-09-24 10:24:25,+55.36721,+10.03029,201,0.0,355.4,-3.8,,,,,10:24:24,,,,,,,,,,,,,,,,,138,,101.0,+0,,0,0,,,,,,,,,,,,,,,,,,,,,,,,,,,,,,18.5,,,,188.7,140.1,,,,,,,,,,,,,,,,,,,,,,,,,,,,,,,
5.06,1,12,2022-09-24 10:24:26,+55.36722,+10.03029,201,0.0,355.4,-3.8,,,,,10:24:25,,,,,,,,,,,,,,,,,138,,101.0,+0,,0,0,,,,,,,,,,,,,,,,,,,,,,,,,,,,,,18.5,,,,188.7,140.1,,,,,,,,,,,,,,,,,,,,,,,,,,,,,,,
6.06,1,12,2022-09-24 10:24:27,+55.36722,+10.03029,201,0.0,355.4,-3.8,,,,,10:24:26,,,,,,,,,,,,,,,,,138,,101.0,+0,,0,0,,,,,,,,,,,,,,,,,,,,,,,,,,,,,,18.5,,,,188.7,140.1,,,,,,,,,,,,,,,,,,,,,,,,,,,,,,,
7.06,1,12,2022-09-24 10:24:28,+55.36722,+10.03028,201,0.0,355.4,-3.8,,,,,10:24:27,,,,,,,,,,,,,,,,,138,,101.0,+0,,0,0,,,,,,,,,,,,,,,,,,,,,,,,,,,,,,18.5,,,,188.7,140.1,,,,,,,,,,,,,,,,,,,,,,,,,,,,,,,
8.06,1,12,2022-09-24 10:24:29,+55.36722,+10.03028,201,0.0,355.4,-3.8,,,,,10:24:28,,,,,,,,,,,,,,,,,138,,101.0,+0,,0,0,,,,,,,,,,,,,,,,,,,,,,,,,,,,,,18.5,,,,188.7,140.1,,,,,,,,,,,,,,,,,,,,,,,,,,,,,,,
9.06,1,12,2022-09-24 10:24:30,+55.36722,+10.03028,201,0.0,355.4,-3.8,,,,,10:24:29,,,,,,,,,,,,,,,,,138,,101.0,+0,,0,0,,,,,,,,,,,,,,,,,,,,,,,,,,,,,,18.5,,,,188.7,140.1,,,,,,,,,,,,,,,,,,,,,,,,,,,,,,,
166.69,1,12,2022-09-24 10:27:07,+55.36716,+10.03032,172,0.0,355.4,-3.8,,,,,10:27:07,+2.4,-1.3,185.3,0.0,+173,-0.0,-0.02,+1.0,99,+8,+16,0.0,30.04,+351,,,138,,,,,0,0,,,,,,,+0,,,+0,,,,,3,0,0,"7000",3,+65,0,0,30.1,,,0.0,0.5,,,18.5,12.8,,-4.0,188.7,140.1,,,,,,,,,,+16,,+16,,,+66.2,+64.7,+13,+0.5,+4.998,,,,,,+3.3,+64.6,,,,,
167.69,1,12,2022-09-24 10:27:08,+55.36716,+10.03032,172,0.0,355.4,-3.8,,,,,10:27:08,+2.4,-1.3,185.2,0.0,+173,-0.0,-0.02,+1.0,99,-5,+16,0.0,30.04,+351,,,138,,,,,0,0,,,,,,,+0,,,+0,,,,,1,0,0,"7000",3,+16,0,0,30.1,,,0.0,0.5,,,18.5,12.8,,-4.0,188.7,140.1,,,,,,,,,,+16,,+16,,,+15.2,+15.8,+13,+0.5,+4.998,,,,,,+3.3,+15.9,,,,,
168.69,1,12,2022-09-24 10:27:09,+55.36716,+10.03032,173,0.0,355.4,-3.8,,,,,10:27:09,+2.4,-1.3,185.2,0.0,+173,+0.0,-0.02,+1.0,99,+6,+16,0.0,30.04,+351,,,138,,,,,0,0,,,,,,,+0,,,+0,,,,,1,0,0,"7000",3,+16,0,0,30.1,0.0,,0.0,0.5,,,18.5,12.8,,-4.0,188.7,140.1,,,,,,,,,,+16,,+16,,,+15.2,+15.8,+13,+0.5,+4.998,,,,,,+3.3,+15.9,,,,,
169.69,1,12,2022-09-24 10:27:10,+55.36716,+10.03032,173,0.0,355.4,-3.8,,,,,10:27:10,+2.5,-1.3,185.2,0.0,+173,+0.0,-0.02,+1.0,99,+6,+16,0.0,30.04,+359,,,138,,,,,0,0,,,,,,,+0,,,+0,,,,,1,0,0,"7000",3,+16,0,0,30.1,0.0,,0.0,0.5,,,18.5,12.8,,-4.1,188.7,140.1,,,,,,,,,,+16,,+16,,,+15.2,+15.8,+13,+0.5,+4.998,,,,,,+3.3,+15.9,,,,,
170.69,1,12,2022-09-24 10:27:11,+55.36717,+10.03032,173,0.0,355.4,-3.8,,,,,10:27:11,+2.5,-1.3,185.3,0.0,+173,+0.1,-0.02,+1.0,99,-7,+16,0.0,30.04,+359,,,138,,,,,0,0,,,,,,,+0,,,+0,,,,,1,0,0,"7000",3,+16,0,0,30.1,0.0,,0.0,0.5,,,18.5,12.8,,-4.1,188.7,140.1,,,,,,,,,,+16,,+16,,,+15.2,+15.8,+13,+0.5,+4.998,,,,,,+3.3,+15.9,,,,,
171.69,1,12,2022-09-24 10:27:12,+55.36717,+10.03032,173,0.0,355.4,-3.8,,,,,10:27:12,+2.5,-1.3,185.2,0.0,+173,+0.0,-0.02,+1.0,99,+13,+16,0.0,30.04,+359,,,138,,,,,0,0,,,,,,,+0,,,+0,,,,,1,0,0,"7000",3,+16,0,0,30.1,0.0,,0.0,0.5,,,18.5,12.8,,-4.1,188.7,140.1,,,,,,,,,,+16,,+16,,,+15.2,+15.8,+13,+0.5,+4.998,,,,,,+3.3,+15.9,,,,,
172.69,1,12,2022-09-24 10:27:13,+55.36717,+10.03032,173,0.0,355.4,-3.8,,,,,10:27:13,+2.5,-1.3,185.2,0.0,+173,+0.0,-0.02,+1.0,99,-2,+16,0.0,30.04,+359,,,138,,,,,0,0,,,,,,,+0,,,+0,,,,,1,0,0,"7000",3,+16,0,0,30.1,0.0,,0.0,0.5,,,18.5,12.8,,-4.1,188.7,140.1,,,,,,,,,,+16,,+16,,,+15.2,+15.8,+13,+0.5,+4.998,,,,,,+3.3,+15.9,,,,,
173.69,1,12,2022-09-24 10:27:14,+55.36717,+10.03032,173,0.0,355.4,-3.8,,,,,10:27:14,+2.5,-1.3,185.2,0.0,+173,+0.0,-0.02,+1.0,99,+2,+16,0.0,30.04,+359,,,138,,,,,0,0,,,,,,,+0,,,+0,,,,,1,0,0,"7000",3,+16,0,0,30.1,0.0,,0.0,0.5,,,18.5,12.8,,-4.1,188.7,140.1,,,,,,,,,,+16,,+16,,,+15.2,+15.8,+13,+0.5,+4.998,,,,,,+3.3,+15.9,,,,,
174.69,1,12,2022-09-24 10:27:15,+55.36717,+10.03032,173,0.0,355.4,-3.8,,,,,10:27:15,+2.4,-1.3,185.2,0.0,+173,+0.0,-0.02,+1.0,99,+3,+16,0.0,30.04,+359,,,138,,,,,0,0,,,,,,,+0,,,+0,,,,,1,0,0,"7000",3,+16,0,0,30.1,0.0,,0.0,0.5,,,18.5,12.8,,-4.1,188.7,140.1,,,,,,,,,,+16,,+16,,,+15.2,+15.8,+13,+0.5,+4.998,,,,,,+3.3,+15.9,,,,,
175.69,1,12,2022-09-24 10:27:16,+55.36717,+10.03032,173,0.0,355.4,-3.8,,,,,10:27:16,+2.4,-1.3,185.2,0.0,+173,+0.0,-0.02,+1.0,99,+8,+16,0.0,30.04,+351,,,138,,,,,0,0,,,,,,,+0,,,+0,,,,,1,0,0,"7000",3,+16,0,0,30.1,0.0,,0.0,0.5,,,18.5,12.8,,-4.1,188.7,140.1,,,,,,,,,,+16,,+16,,,+15.2,+15.8,+13,+0.5,+4.998,,,,,,+3.3,+15.9,,,,,
176.69,1,12,2022-09-24 10:27:17,+55.36717,+10.03032,174,0.0,355.4,-3.8,,,,,10:27:17,+2.5,-1.2,185.2,0.0,+173,+0.0,-0.02,+1.0,99,-19,+16,0.0,30.04,+351,,,138,,,,,0,0,,,,,,,+0,,,+0,,,,,1,0,0,"7000",3,+16,0,0,30.1,0.0,,0.0,0.5,,,18.5,12.8,,-4.1,188.7,140.1,,,,,,,,,,+16,,+16,,,+15.2,+15.8,+13,+0.5,+4.998,,,,,,+3.3,+15.9,,,,,
177.69,1,12,2022-09-24 10:27:18,+55.36716,+10.03032,174,0.0,355.4,-3.8,,,,,10:27:18,+2.5,-1.2,185.1,0.0,+173,+0.0,-0.02,+1.0,99,-10,+16,0.0,30.04,+351,,,138,,,,,0,0,,,,,,,+0,,,+0,,,,,1,0,0,"7000",3,+16,0,0,30.1,0.0,,0.0,0.5,,,18.5,12.8,,-4.1,188.7,140.1,,,,,,,,,,+16,,+16,,,+15.2,+15.8,+13,+0.5,+4.998,,,,,,+3.3,+15.9,,,,,
178.69,1,12,2022-09-24 10:27:19,+55.36716,+10.03032,174,0.0,355.4,-3.8,,,,,10:27:19,+2.5,-1.3,185.2,0.0,+173,+0.0,-0.02,+1.0,99,-5,+16,0.0,30.04,+351,,,138,,,,,0,0,,,,,,,+0,,,+0,,,,,1,0,0,"7000",3,+16,0,0,30.1,0.0,,0.0,0.5,,,18.5,12.8,,-4.1,188.7,140.1,,,,,,,,,,+16,,+16,,,+15.2,+15.8,+13,+0.5,+4.998,,,,,,+3.3,+15.9,,,,,
179.69,1,12,2022-09-24 10:27:20,+55.36716,+10.03032,174,0.0,355.4,-3.8,,,,,10:27:20,+2.5,-1.2,185.2,0.0,+173,+0.0,-0.02,+1.0,99,+1,+16,0.0,30.04,+351,,,138,,,,,0,0,,,,,,,+0,,,+0,,,,,1,0,0,"7000",3,+16,0,0,30.1,0.0,,0.0,0.5,,,18.5,12.8,,-4.1,188.7,140.1,,,,,,,,,,+16,,+16,,,+15.2,+15.8,+13,+0.5,+4.998,,,,,,+3.3,+15.9,,,,,
180.69,1,12,2022-09-24 10:27:21,+55.36716,+10.03032,174,0.0,355.4,-3.8,,,,,10:27:21,+2.5,-1.3,185.2,0.0,+173,+0.0,-0.02,+1.0,99,+0,+16,0.0,30.04,+351,,,138,,,,,0,0,,,,,,,+0,,,+0,,,,,1,0,0,"7000",3,+16,0,0,30.1,0.0,,0.0,0.5,,,18.5,12.8,,-4.1,188.7,140.1,,,,,,,,,,+16,,+16,,,+15.2,+15.8,+13,+0.5,+4.998,,,,,,+3.3,+15.9,,,,,
181.69,1,12,2022-09-24 10:27:22,+55.36716,+10.03032,175,0.0,355.4,-3.8,,,,,10:27:22,+2.5,-1.3,185.3,0.0,+173,+0.0,-0.02,+1.0,99,-8,+16,0.0,30.04,+359,,,138,,,,,0,0,,,,,,,+0,,,+0,,,,,1,0,0,"7000",3,+16,0,0,30.1,0.0,,0.0,0.5,,,18.5,12.8,,-4.1,188.7,140.1,,,,,,,,,,+16,,+16,,,+15.2,+15.8,+13,+0.5,+4.998,,,,,,+3.3,+15.9,,,,,
182.69,1,12,2022-09-24 10:27:23,+55.36716,+10.03032,175,0.0,355.4,-3.8,,,,,10:27:23,+2.5,-1.4,185.3,0.0,+173,+0.0,-0.02,+1.0,99,+9,+16,0.0,30.04,+359,,,138,,,,,0,0,,,,,,,+0,,,+0,,,,,1,0,0,"7000",3,+16,0,0,30.1,0.0,,0.0,0.5,,,18.5,12.8,,-4.1,188.7,140.1,,,,,,,,,,+16,,+16,,,+15.2,+15.8,+13,+0.5,+4.998,,,,,,+3.3,+15.9,,,,,
183.69,1,12,2022-09-24 10:27:24,+55.36716,+10.03032,175,0.0,355.4,-3.8,,,,,10:27:24,+2.5,-1.4,185.4,0.0,+173,+0.0,-0.02,+1.0,99,+4,+16,0.0,30.04,+359,,,138,,,,,0,0,,,,,,,+0,,,+0,,,,,1,0,0,"7000",3,+16,0,0,30.1,0.0,,0.0,0.5,,,18.5,12.8,,-4.1,188.7,140.1,,,,,,,,,,+16,,+16,,,+15.2,+15.8,+13,+0.5,+4.998,,,,,,+3.3,+15.9,,,,,
184.69,1,12,2022-09-24 10:27:25,+55.36716,+10.03032,176,0.0,355.4,-3.8,,,,,10:27:25,+2.5,-1.4,185.4,0.0,+173,+0.0,-0.02,+1.0,99,-22,+16,0.0,30.04,+359,,,138,,,,,0,0,,,,,,,+0,,,+0,,,,,1,0,0,"7000",3,+16,0,0,30.1,0.0,,0.0,0.5,,,18.5,12.8,,-4.1,188.7,140.1,,,,,,,,,,+16,,+16,,,+15.2,+15.8,+13,+0.5,+4.998,,,,,,+3.3,+15.9,,,,,
185.69,1,12,2022-09-24 10:27:26,+55.36716,+10.03032,176,0.0,355.4,-3.8,,,,,10:27:26,+2.5,-1.4,185.5,0.0,+173,+0.1,-0.02,+1.0,99,-20,+16,0.0,30.04,+359,,,138,,,,,0,0,,,,,,,+0,,,+0,,,,,1,0,0,"7000",3,+16,0,0,30.1,0.0,,0.0,0.5,,,18.5,12.8,,-4.1,188.7,140.1,,,,,,,,,,+16,,+16,,,+15.2,+15.8,+13,+0.5,+4.998,,,,,,+3.3,+15.9,,,,,
186.69,1,12,2022-09-24 10:27:27,+55.36716,+10.03032,176,0.0,355.4,-3.8,,,,,10:27:27,+2.5,-1.2,185.5,0.0,+173,+0.1,-0.02,+1.0,99,-5,+16,0.0,30.04,+359,,,138,,,,,0,0,,,,,,,+0,,,+0,,,,,1,0,0,"7000",3,+16,0,0,30.1,0.0,,0.0,0.5,,,18.5,12.8,,-4.0,188.7,140.1,,,,,,,,,,+16,,+16,,,+15.2,+15.8,+13,+0.5,+4.998,,,,,,+3.3,+15.9,,,,,
187.69,1,12,2022-09-24 10:27:28,+55.36716,+10.03032,177,0.0,355.4,-3.8,,,,,10:27:28,+2.4,-1.2,185.3,0.0,+173,+0.1,-0.02,+1.0,99,-14,+16,0.0,30.04,+349,,,138,,,,,0,0,,,,,,,+0,,,+0,,,,,1,0,0,"7000",3,+16,0,0,30.1,0.0,,0.0,0.5,,,18.5,12.8,,-4.0,188.7,140.1,,,,,,,,,,+16,,+16,,,+15.2,+15.8,+13,+0.5,+4.998,,,,,,+3.3,+15.9,,,,,
188.69,1,12,2022-09-24 10:27:29,+55.36716,+10.03032,177,0.0,355.4,-3.8,,,,,10:27:29,+2.4,-1.1,185.2,0.0,+173,+0.0,-0.02,+1.0,99,+10,+16,0.0,30.04,+351,,,138,,,,,0,0,,,,,,,+0,,,+0,,,,,1,0,0,"7000",3,+16,0,0,30.1,0.0,,0.0,0.5,,,18.5,12.8,,-4.0,188.7,140.1,,,,,,,,,,+16,,+16,,,+15.2,+15.8,+13,+0.5,+4.998,,,,,,+3.3,+15.9,,,,,
189.69,1,12,2022-09-24 10:27:30,+55.36716,+10.03032,177,0.0,355.4,-3.8,,,,,10:27:30,+2.4,-1.2,185.1,0.0,+173,+0.0,-0.02,+1.0,99,+0,+16,0.0,30.04,+351,,,138,,,,,0,0,,,,,,,+0,,,+0,,,,,1,0,0,"7000",3,+16,0,0,30.1,0.0,,0.0,0.5,,,18.5,12.8,,-4.0,188.7,140.1,,,,,,,,,,+16,,+16,,,+15.2,+15.8,+13,+0.5,+4.998,,,,,,+3.3,+15.9,,,,,
190.69,1,12,2022-09-24 10:27:31,+55.36716,+10.03032,178,0.0,355.4,-3.8,,,,,10:27:31,+2.4,-1.2,185.1,0.0,+173,+0.0,-0.02,+1.0,99,-33,+16,0.0,30.04,+351,,,138,,,,,0,0,,,,,,,+0,,,+0,,,,,1,0,0,"7000",3,+16,0,0,30.1,0.0,,0.0,0.5,,,18.5,12.8,,-4.0,188.7,140.1,,,,,,,,,,+16,,+16,,,+15.2,+15.8,+13,+0.5,+4.998,,,,,,+3.3,+15.9,,,,,
191.69,1,12,2022-09-24 10:27:32,+55.36716,+10.03032,178,0.0,355.4,-3.8,,,,,10:27:32,+2.4,-1.2,185.1,0.0,+173,+0.0,-0.02,+1.0,99,+15,+16,0.0,30.04,+351,,,138,,,,,0,0,,,,,,,+0,,,+0,,,,,1,0,0,"7000",3,+16,0,0,30.1,0.0,,0.0,0.5,,,18.5,12.8,,-4.0,188.7,140.1,,,,,,,,,,+16,,+16,,,+15.2,+15.8,+13,+0.5,+4.998,,,,,,+3.3,+15.9,,,,,
192.69,1,12,2022-09-24 10:27:33,+55.36716,+10.03032,178,0.0,355.4,-3.8,,,,,10:27:33,+2.4,-1.2,185.1,0.0,+173,+0.0,-0.02,+1.0,99,+11,+16,0.0,30.04,+351,,,138,,,,,0,0,,,,,,,+0,,,+0,,,,,1,0,0,"7000",3,+16,0,0,30.1,0.0,,0.0,0.5,,,18.5,12.8,,-4.0,188.7,140.1,,,,,,,,,,+16,,+16,,,+15.2,+15.8,+13,+0.5,+4.998,,,,,,+3.3,+15.9,,,,,
193.69,1,12,2022-09-24 10:27:34,+55.36716,+10.03032,178,0.0,355.4,-3.8,,,,,10:27:34,+2.4,-1.3,185.1,0.0,+173,+0.0,-0.02,+1.0,99,+1,+16,0.0,30.04,+351,,,138,,,,,0,0,,,,,,,+0,,,+0,,,,,1,0,0,"7000",3,+16,0,0,30.1,0.0,,0.0,0.5,,,18.5,12.8,,-4.0,188.7,140.1,,,,,,,,,,+16,,+16,,,+15.2,+15.8,+13,+0.5,+4.998,,,,,,+3.3,+15.9,,,,,
194.69,1,12,2022-09-24 10:27:35,+55.36716,+10.03032,178,0.0,355.4,-3.8,,,,,10:27:35,+2.4,-1.3,185.2,0.0,+173,+0.0,-0.02,+1.0,99,+5,+16,0.0,30.04,+351,,,138,,,,,0,0,,,,,,,+0,,,+0,,,,,1,0,0,"7000",3,+16,0,0,30.1,0.0,,0.0,0.5,,,18.5,12.8,,-4.0,188.7,140.1,,,,,,,,,,+16,,+16,,,+15.2,+15.8,+13,+0.5,+4.998,,,,,,+3.3,+15.9,,,,,
195.69,1,12,2022-09-24 10:27:36,+55.36716,+10.03032,179,0.0,355.4,-3.8,,,,,10:27:36,+2.4,-1.3,185.2,0.0,+173,+0.0,-0.02,+1.0,99,-35,+16,0.0,30.04,+351,,,138,,,,,0,0,,,,,,,+0,,,+0,,,,,1,0,0,"7000",3,+16,0,0,30.1,0.0,,0.0,0.5,,,18.5,12.8,,-4.0,188.7,140.1,,,,,,,,,,+16,,+16,,,+15.2,+15.8,+13,+0.5,+4.998,,,,,,+3.3,+15.9,,,,,
196.69,1,12,2022-09-24 10:27:37,+55.36716,+10.03032,179,0.0,355.4,-3.8,,,,,10:27:37,+2.4,-1.3,185.2,0.0,+173,+0.1,-0.02,+1.0,99,-45,+16,0.0,30.04,+351,,,138,,,,,0,0,,,,,,,+0,,,+0,,,,,1,0,0,"7000",3,+16,0,0,30.1,0.0,,0.0,0.5,,,18.5,12.8,,-4.0,188.7,140.1,,,,,,,,,,+16,,+16,,,+15.2,+15.8,+13,+0.5,+4.998,,,,,,+3.3,+15.9,,,,,
197.69,1,12,2022-09-24 10:27:38,+55.36716,+10.03032,179,0.0,355.4,-3.8,,,,,10:27:38,+2.4,-1.2,185.2,0.0,+173,+0.1,-0.02,+1.0,99,-8,+16,0.0,30.04,+351,,,138,,,,,0,0,,,,,,,+0,,,+0,,,,,1,0,0,"7000",3,+16,0,0,30.1,0.0,,0.0,0.5,,,18.5,12.8,,-4.0,188.7,140.1,,,,,,,,,,+16,,+16,,,+15.2,+15.8,+13,+0.5,+4.998,,,,,,+3.3,+15.9,,,,,
198.69,1,12,2022-09-24 10:27:39,+55.36716,+10.03032,179,0.0,355.4,-3.8,,,,,10:27:39,+2.4,-1.3,185.2,0.0,+173,+0.0,-0.02,+1.0,99,-14,+16,0.0,30.04,+351,,,138,,,,,0,0,,,,,,,+0,,,+0,,,,,1,0,0,"7000",3,+16,0,0,30.1,0.0,,0.0,0.5,,,18.5,12.8,,-4.0,188.7,140.1,,,,,,,,,,+16,,+16,,,+15.2,+15.8,+13,+0.5,+4.998,,,,,,+3.3,+15.9,,,,,
199.69,1,12,2022-09-24 10:27:40,+55.36716,+10.03032,179,0.0,355.4,-3.8,,,,,10:27:40,+2.4,-1.2,185.2,0.0,+173,+0.0,-0.02,+1.0,99,-42,+16,0.0,30.04,+351,,,138,,,,,0,0,,,,,,,+0,,,+0,,,,,1,0,0,"7000",3,+16,0,0,30.1,0.0,,0.0,0.5,,,18.5,12.8,,-4.0,188.7,140.1,,,,,,,,,,+16,,+16,,,+15.2,+15.8,+13,+0.5,+4.998,,,,,,+3.3,+15.9,,,,,
200.69,1,12,2022-09-24 10:27:41,+55.36716,+10.03032,179,0.0,355.4,-3.8,,,,,10:27:41,+2.4,-1.2,185.1,0.0,+173,+0.0,-0.02,+1.0,99,+4,+16,0.0,30.04,+351,,,138,,,,,0,0,,,,,,,+0,,,+0,,,,,1,0,0,"7000",3,+16,0,0,30.1,0.0,,0.0,0.5,,,18.5,12.8,,-4.0,188.7,140.1,,,,,,,,,,+16,,+16,,,+15.2,+15.8,+13,+0.5,+4.998,,,,,,+3.3,+15.9,,,,,
201.69,1,12,2022-09-24 10:27:42,+55.36716,+10.03032,179,0.0,355.4,-3.8,,,,,10:27:42,+2.3,-1.2,185.1,0.0,+173,+0.0,-0.02,+1.0,99,+2,+16,0.0,30.04,+351,,,138,,,,,0,0,,,,,,,+0,,,+0,,,,,1,0,0,"7000",3,+16,0,0,30.1,0.0,,0.0,0.5,,,18.5,12.8,,-4.0,188.7,140.1,,,,,,,,,,+16,,+16,,,+15.2,+15.8,+13,+0.5,+4.998,,,,,,+3.3,+15.9,,,,,
202.69,1,12,2022-09-24 10:27:43,+55.36716,+10.03032,179,0.0,355.4,-3.8,,,,,10:27:43,+2.4,-1.2,185.1,0.0,+173,+0.1,-0.02,+1.0,99,+19,+16,0.0,30.04,+351,,,138,,,,,0,0,,,,,,,+0,,,+0,,,,,1,0,0,"7000",3,+16,0,0,30.1,0.0,,0.0,0.5,,,18.5,12.8,,-4.0,188.7,140.1,,,,,,,,,,+16,,+16,,,+15.2,+15.8,+13,+0.5,+4.998,,,,,,+3.3,+15.9,,,,,
203.69,1,12,2022-09-24 10:27:44,+55.36716,+10.03032,179,0.0,355.4,-3.8,,,,,10:27:44,+2.4,-1.1,185.1,0.0,+173,+0.1,-0.02,+1.0,99,+7,+16,0.0,30.04,+351,,,138,,,,,0,0,,,,,,,+0,,,+0,,,,,1,0,0,"7000",3,+16,0,0,30.1,0.0,,0.0,0.5,,,18.5,12.8,,-4.0,188.7,140.1,,,,,,,,,,+16,,+16,,,+15.2,+15.8,+13,+0.5,+4.998,,,,,,+3.3,+15.9,,,,,
204.69,1,12,2022-09-24 10:27:45,+55.36716,+10.03032,179,0.0,355.4,-3.8,,,,,10:27:45,+2.4,-1.1,185.0,0.0,+173,+0.0,-0.02,+1.0,99,-18,+16,0.0,30.04,+351,,,138,,,,,0,0,,,,,,,+0,,,+0,,,,,1,0,0,"7000",3,+16,0,0,30.1,0.0,,0.0,0.5,,,18.5,12.8,,-4.0,188.7,140.1,,,,,,,,,,+16,,+16,,,+15.2,+15.8,+13,+0.5,+4.998,,,,,,+3.3,+15.9,,,,,
205.69,1,12,2022-09-24 10:27:46,+55.36717,+10.03033,179,0.0,355.4,-3.8,,,,,10:27:46,+2.4,-1.2,185.0,0.0,+173,+0.0,-0.02,+1.0,99,+10,+16,0.0,30.04,+351,,,138,,,,,0,0,,,,,,,+0,,,+0,,,,,1,0,0,"7000",3,+16,0,0,30.1,0.0,,0.0,0.5,,,18.5,12.8,,-4.0,188.7,140.1,,,,,,,,,,+16,,+16,,,+15.2,+15.8,+13,+0.5,+4.998,,,,,,+3.3,+15.9,,,,,
206.69,1,12,2022-09-24 10:27:47,+55.36717,+10.03033,179,0.0,355.4,-3.8,,,,,10:27:47,+2.4,-1.2,185.0,0.0,+173,+0.0,-0.02,+1.0,99,+33,+16,0.0,30.04,+360,,,138,,,,,0,0,,,,,,,+0,,,+0,,,,,1,0,0,"7000",3,+16,0,0,30.1,0.0,,0.0,0.5,,,18.5,12.8,,-4.0,188.7,140.1,,,,,,,,,,+16,,+16,,,+15.2,+15.8,+13,+0.5,+4.998,,,,,,+3.3,+15.9,,,,,
207.69,1,12,2022-09-24 10:27:48,+55.36717,+10.03033,179,0.0,355.4,-3.8,,,,,10:27:48,+2.5,-1.3,185.1,0.0,+173,+0.0,-0.02,+1.0,99,+9,+16,0.0,30.04,+359,,,138,,,,,0,0,,,,,,,+0,,,+0,,,,,1,0,0,"7000",3,+16,0,0,30.1,0.0,,0.0,0.5,,,18.5,12.8,,-4.0,188.7,140.1,,,,,,,,,,+16,,+16,,,+15.2,+15.8,+13,+0.5,+4.998,,,,,,+3.3,+15.9,,,,,
208.69,1,12,2022-09-24 10:27:49,+55.36717,+10.03033,179,0.0,355.4,-3.8,,,,,10:27:49,+2.4,-1.2,185.1,0.0,+173,+0.1,-0.02,+1.0,99,-6,+16,0.0,30.04,+359,,,138,,,,,0,0,,,,,,,+0,,,+0,,,,,1,0,0,"7000",3,+16,0,0,30.1,0.0,,0.0,0.5,,,18.5,12.8,,-4.0,188.7,140.1,,,,,,,,,,+16,,+16,,,+15.2,+15.8,+13,+0.5,+4.998,,,,,,+3.3,+15.9,,,,,
209.69,1,12,2022-09-24 10:27:50,+55.36717,+10.03033,179,0.0,355.4,-3.8,,,,,10:27:50,+2.5,-1.2,185.1,0.0,+173,+0.1,-0.02,+1.0,99,+15,+16,0.0,30.04,+359,,,138,,,,,0,0,,,,,,,+0,,,+0,,,,,1,0,0,"7000",3,+16,0,0,30.1,0.0,,0.0,0.5,,,18.5,12.8,,-4.0,188.7,140.1,,,,,,,,,,+16,,+16,,,+15.2,+15.8,+13,+0.5,+4.998,,,,,,+3.3,+15.9,,,,,
210.69,1,12,2022-09-24 10:27:51,+55.36717,+10.03033,179,0.0,355.4,-3.8,,,,,10:27:51,+2.5,-1.2,185.2,0.0,+173,+0.1,-0.02,+1.0,99,-29,+16,0.0,30.04,+359,,,138,,,,,0,0,,,,,,,+0,,,+0,,,,,1,0,0,"7000",3,+16,0,0,30.1,0.0,,0.0,0.5,,,18.5,12.8,,-4.0,188.7,140.1,,,,,,,,,,+16,,+16,,,+15.2,+15.8,+13,+0.5,+4.998,,,,,,+3.3,+15.9,,,,,
211.69,1,12,2022-09-24 10:27:52,+55.36717,+10.03033,179,0.0,355.4,-3.8,,,,,10:27:52,+2.5,-1.2,185.1,0.0,+173,+0.0,-0.02,+1.0,99,+5,+16,0.0,30.04,+359,,,138,,,,,0,0,,,,,,,+0,,,+0,,,,,1,0,0,"7000",3,+16,0,0,30.1,0.0,,0.0,0.5,,,18.5,12.8,,-4.0,188.7,140.1,,,,,,,,,,+16,,+16,,,+15.2,+15.8,+13,+0.5,+4.998,,,,,,+3.3,+15.9,,,,,
212.69,1,12,2022-09-24 10:27:53,+55.36717,+10.03033,179,0.0,355.4,-3.8,,,,,10:27:53,+2.5,-1.2,185.1,0.0,+173,+0.1,-0.02,+1.0,99,-7,+16,0.0,30.04,+359,,,138,,,,,0,0,,,,,,,+0,,,+0,,,,,1,0,0,"7000",3,+16,0,0,30.1,0.0,,0.0,0.5,,,18.5,12.8,,-4.0,188.7,140.1,,,,,,,,,,+16,,+16,,,+15.2,+15.8,+13,+0.5,+4.998,,,,,,+3.3,+15.9,,,,,
213.69,1,12,2022-09-24 10:27:54,+55.36717,+10.03033,179,0.0,355.4,-3.8,,,,,10:27:54,+2.5,-1.2,185.1,0.0,+173,+0.0,-0.02,+1.0,99,-9,+16,0.0,30.04,+359,,,138,,,,,0,0,,,,,,,+0,,,+0,,,,,1,0,0,"7000",3,+16,0,0,30.1,0.0,,0.0,0.5,,,18.5,12.8,,-4.0,188.7,140.1,,,,,,,,,,+16,,+16,,,+15.2,+15.8,+13,+0.5,+4.998,,,,,,+3.3,+15.9,,,,,
214.69,1,12,2022-09-24 10:27:55,+55.36717,+10.03033,179,0.0,355.4,-3.8,,,,,10:27:55,+2.5,-1.2,185.1,0.0,+173,+0.0,-0.02,+1.0,99,-1,+16,0.0,30.04,+359,,,138,,,,,0,0,,,,,,,+0,,,+0,,,,,1,0,0,"7000",3,+16,0,0,30.1,0.0,,0.0,0.5,,,18.5,12.8,,-4.0,188.7,140.1,,,,,,,,,,+16,,+16,,,+15.2,+15.8,+13,+0.5,+4.998,,,,,,+3.3,+15.9,,,,,
215.69,1,12,2022-09-24 10:27:56,+55.36717,+10.03034,179,0.0,355.4,-3.8,,,,,10:27:56,+2.5,-1.3,185.1,0.0,+173,+0.0,-0.02,+1.0,99,-25,+16,0.0,30.04,+359,,,138,,,,,0,0,,,,,,,+0,,,+0,,,,,1,0,0,"7000",3,+16,0,0,30.1,0.0,,0.0,0.5,,,18.5,12.8,,-4.0,188.7,140.1,,,,,,,,,,+16,,+16,,,+15.2,+15.8,+13,+0.5,+4.998,,,,,,+3.3,+15.9,,,,,
216.69,1,12,2022-09-24 10:27:57,+55.36717,+10.03034,179,0.0,355.4,-3.8,,,,,10:27:57,+2.5,-1.4,185.3,0.0,+173,+0.1,-0.02,+1.0,99,-4,+16,0.0,30.04,+351,,,138,,,,,0,0,,,,,,,+0,,,+0,,,,,1,0,0,"7000",3,+16,0,0,30.1,0.0,,0.0,0.5,,,18.5,12.8,,-4.0,188.7,140.1,,,,,,,,,,+16,,+16,,,+15.2,+15.8,+13,+0.5,+4.998,,,,,,+3.3,+15.9,,,,,
217.69,1,12,2022-09-24 10:27:58,+55.36717,+10.03034,179,0.0,355.4,-3.8,,,,,10:27:58,+2.5,-1.4,185.3,0.0,+173,+0.0,-0.02,+1.0,99,-11,+16,0.0,30.04,+351,,,138,,,,,0,0,,,,,,,+0,,,+0,,,,,1,0,0,"7000",3,+16,0,0,30.1,0.0,,0.0,0.5,,,18.5,12.8,,-4.0,188.7,140.1,,,,,,,,,,+16,,+16,,,+15.2,+15.8,+13,+0.5,+4.998,,,,,,+3.3,+15.9,,,,,
218.69,1,12,2022-09-24 10:27:59,+55.36717,+10.03034,179,0.0,355.4,-3.8,,,,,10:27:59,+2.5,-1.4,185.4,0.0,+173,+0.1,-0.02,+1.0,99,-5,+16,0.0,30.04,+351,,,138,,,,,0,0,,,,,,,+0,,,+0,,,,,1,0,0,"7000",3,+16,0,0,30.1,0.0,,0.0,0.5,,,18.5,12.8,,-4.0,188.7,140.1,,,,,,,,,,+16,,+16,,,+15.2,+15.8,+13,+0.5,+4.998,,,,,,+3.3,+15.9,,,,,
219.69,1,12,2022-09-24 10:28:00,+55.36717,+10.03034,180,0.0,355.4,-3.8,,,,,10:28:00,+2.5,-1.4,185.4,0.0,+173,+0.1,-0.02,+1.0,99,-21,+16,0.0,30.04,+359,,,138,,,,,0,0,,,,,,,+0,,,+0,,,,,1,0,0,"7000",3,+16,0,0,30.1,0.0,,0.0,0.5,,,18.5,12.8,,-4.0,188.7,140.1,,,,,,,,,,+16,,+16,,,+15.2,+15.8,+13,+0.5,+4.998,,,,,,+3.3,+15.9,,,,,
220.69,1,12,2022-09-24 10:28:01,+55.36717,+10.03035,180,0.0,355.4,-3.8,,,,,10:28:01,+2.5,-1.4,185.4,0.0,+173,+0.0,-0.02,+1.0,99,-25,+16,0.0,30.04,+359,,,138,,,,,0,0,,,,,,,+0,,,+0,,,,,1,0,0,"7000",3,+16,0,0,30.1,0.0,,0.0,0.5,,,18.5,12.8,,-4.0,188.7,140.1,,,,,,,,,,+16,,+16,,,+15.2,+15.8,+13,+0.5,+4.998,,,,,,+3.3,+15.9,,,,,
221.69,1,12,2022-09-24 10:28:02,+55.36717,+10.03035,180,0.0,355.4,-3.8,,,,,10:28:02,+2.5,-1.4,185.4,0.0,+173,+0.0,-0.02,+1.0,99,-1,+16,0.0,30.04,+359,,,138,,,,,0,0,,,,,,,+0,,,+0,,,,,1,0,0,"7000",3,+16,0,0,30.1,0.0,,0.0,0.5,,,18.5,12.8,,-4.0,188.7,140.1,,,,,,,,,,+16,,+16,,,+15.2,+15.8,+13,+0.5,+4.998,,,,,,+3.3,+15.9,,,,,
222.69,1,12,2022-09-24 10:28:03,+55.36717,+10.03035,180,0.0,355.4,-3.8,,,,,10:28:03,+2.5,-1.4,185.4,0.0,+173,+0.1,-0.02,+1.0,99,+4,+16,0.0,30.04,+359,,,138,,,,,0,0,,,,,,,+0,,,+0,,,,,1,0,0,"7000",3,+16,0,0,30.1,0.0,,0.0,0.5,,,18.5,12.8,,-4.0,188.7,140.1,,,,,,,,,,+16,,+16,,,+15.2,+15.8,+13,+0.5,+4.998,,,,,,+3.3,+15.9,,,,,
223.69,1,12,2022-09-24 10:28:04,+55.36717,+10.03035,180,0.0,355.4,-3.8,,,,,10:28:04,+2.5,-1.3,185.4,0.0,+173,+0.1,-0.02,+1.0,99,+13,+16,0.0,30.04,+359,,,138,,,,,0,0,,,,,,,+0,,,+0,,,,,1,0,0,"7000",3,+16,0,0,30.1,0.0,,0.0,0.5,,,18.5,12.8,,-4.0,188.7,140.1,,,,,,,,,,+16,,+16,,,+15.2,+15.8,+13,+0.5,+4.998,,,,,,+3.3,+15.9,,,,,
224.69,1,12,2022-09-24 10:28:05,+55.36717,+10.03035,180,0.0,355.4,-3.8,,,,,10:28:05,+2.5,-1.3,185.4,0.0,+173,+0.0,-0.02,+1.0,99,-11,+16,0.0,30.04,+359,,,138,,,,,0,0,,,,,,,+0,,,+0,,,,,1,0,0,"7000",3,+16,0,0,30.1,0.0,,0.0,0.5,,,18.5,12.8,,-4.0,188.7,140.1,,,,,,,,,,+16,,+16,,,+15.2,+15.8,+13,+0.5,+4.998,,,,,,+3.3,+15.9,,,,,
225.69,1,12,2022-09-24 10:28:06,+55.36717,+10.03035,180,0.0,355.4,-3.8,,,,,10:28:06,+2.5,-1.3,185.4,0.0,+173,+0.1,-0.02,+1.0,99,-29,+16,0.0,30.04,+351,,,138,,,,,0,0,,,,,,,+0,,,+0,,,,,1,0,0,"7000",3,+16,0,0,30.1,0.0,,0.0,0.5,,,18.5,12.8,,-4.0,188.7,140.1,,,,,,,,,,+16,,+16,,,+15.2,+15.8,+13,+0.5,+4.998,,,,,,+3.3,+15.9,,,,,
226.69,1,12,2022-09-24 10:28:07,+55.36717,+10.03036,180,0.0,355.4,-3.8,,,,,10:28:07,+2.5,-1.3,185.3,0.0,+173,+0.1,-0.02,+1.0,99,+5,+16,0.0,30.04,+351,,,138,,,,,0,0,,,,,,,+0,,,+0,,,,,1,0,0,"7000",3,+16,0,0,30.1,0.0,,0.0,0.5,,,18.5,12.8,,-4.0,188.7,140.1,,,,,,,,,,+16,,+16,,,+15.2,+15.8,+13,+0.5,+4.998,,,,,,+3.3,+15.9,,,,,
227.69,1,12,2022-09-24 10:28:08,+55.36717,+10.03036,180,0.0,355.4,-3.8,,,,,10:28:08,+2.5,-1.3,185.2,0.0,+173,+0.0,-0.02,+1.0,99,-32,+16,0.0,30.04,+351,,,138,,,,,0,0,,,,,,,+0,,,+0,,,,,1,0,0,"7000",3,+16,0,0,30.1,0.0,,0.0,0.5,,,18.5,12.8,,-4.0,188.7,140.1,,,,,,,,,,+16,,+16,,,+15.2,+15.8,+13,+0.5,+4.998,,,,,,+3.3,+15.9,,,,,
228.69,1,12,2022-09-24 10:28:09,+55.36717,+10.03036,180,0.0,355.4,-3.8,,,,,10:28:09,+2.5,-1.3,185.2,0.0,+173,+0.0,-0.02,+1.0,99,+23,+16,0.0,30.04,+360,,,138,,,,,0,0,,,,,,,+0,,,+0,,,,,1,0,0,"7000",3,+16,0,0,30.1,0.0,,0.0,0.5,,,18.5,12.8,,-4.0,188.7,140.1,,,,,,,,,,+16,,+16,,,+15.2,+15.8,+13,+0.5,+4.998,,,,,,+3.3,+15.9,,,,,
229.69,1,12,2022-09-24 10:28:10,+55.36717,+10.03036,180,0.0,355.4,-3.8,,,,,10:28:10,+2.4,-1.2,185.2,0.0,+173,+0.0,-0.02,+1.0,99,-20,+16,0.0,30.04,+359,,,138,,,,,0,0,,,,,,,+0,,,+0,,,,,1,0,0,"7000",3,+16,0,0,30.1,0.0,,0.0,0.5,,,18.5,12.8,,-4.0,188.7,140.1,,,,,,,,,,+16,,+16,,,+15.2,+15.8,+13,+0.5,+4.998,,,,,,+3.3,+15.9,,,,,
230.69,1,12,2022-09-24 10:28:11,+55.36717,+10.03036,181,0.0,355.4,-3.8,,,,,10:28:11,+2.4,-1.3,185.2,0.0,+173,+0.1,-0.02,+1.0,99,-35,+16,0.0,30.04,+359,,,138,,,,,0,0,,,,,,,+0,,,+0,,,,,1,0,0,"7000",3,+16,0,0,30.1,0.0,,0.0,0.5,,,18.5,12.8,,-4.0,188.7,140.1,,,,,,,,,,+16,,+16,,,+15.2,+15.8,+13,+0.5,+4.998,,,,,,+3.3,+15.9,,,,,
231.69,1,12,2022-09-24 10:28:12,+55.36717,+10.03036,181,0.0,355.4,-3.8,,,,,10:28:12,+2.5,-1.2,185.2,0.0,+172,+0.1,-0.02,+1.0,99,-36,+16,0.0,30.04,+358,,,138,,,,,0,0,,,,,,,+0,,,+0,,,,,1,0,0,"7000",3,+16,0,0,30.1,0.0,,0.0,0.5,,,18.5,12.8,,-4.0,188.7,140.1,,,,,,,,,,+16,,+16,,,+15.2,+15.8,+13,+0.5,+4.998,,,,,,+3.3,+15.9,,,,,
232.69,1,12,2022-09-24 10:28:13,+55.36717,+10.03036,181,0.0,355.4,-3.8,,,,,10:28:13,+2.4,-1.3,185.2,0.0,+172,+0.1,-0.02,+1.0,99,-42,+16,0.0,30.04,+358,,,138,,,,,0,0,,,,,,,+0,,,+0,,,,,1,0,0,"7000",3,+16,0,0,30.1,0.0,,0.0,0.5,,,18.5,12.8,,-4.0,188.7,140.1,,,,,,,,,,+16,,+16,,,+15.2,+15.8,+13,+0.5,+4.998,,,,,,+3.3,+15.9,,,,,
233.69,1,12,2022-09-24 10:28:14,+55.36717,+10.03036,181,0.0,355.4,-3.8,,,,,10:28:14,+2.5,-1.4,185.2,0.0,+172,+0.0,-0.02,+1.0,99,+9,+16,0.0,30.04,+358,,,138,,,,,0,0,,,,,,,+0,,,+0,,,,,1,0,0,"7000",3,+16,0,0,30.1,0.0,,0.0,0.5,,,18.5,12.8,,-4.0,188.7,140.1,,,,,,,,,,+16,,+16,,,+15.2,+15.8,+13,+0.5,+4.998,,,,,,+3.3,+15.9,,,,,
234.69,1,12,2022-09-24 10:28:15,+55.36717,+10.03036,181,0.0,355.4,-3.8,,,,,10:28:15,+2.4,-1.4,185.3,0.0,+172,+0.0,-0.02,+1.0,99,-12,+16,0.0,30.04,+359,,,138,,,,,0,0,,,,,,,+0,,,+0,,,,,1,0,0,"7000",3,+16,0,0,30.1,0.0,,0.0,0.5,,,18.5,12.8,,-4.0,188.7,140.1,,,,,,,,,,+16,,+16,,,+15.2,+15.8,+13,+0.5,+4.998,,,,,,+3.3,+15.9,,,,,
235.69,1,12,2022-09-24 10:28:16,+55.36717,+10.03036,180,0.0,355.4,-3.8,,,,,10:28:16,+2.4,-1.4,185.3,0.0,+172,-0.0,-0.02,+1.0,99,+28,+16,0.0,30.04,+358,,,138,,,,,0,0,,,,,,,+0,,,+0,,,,,1,0,0,"7000",3,+16,0,0,30.1,0.0,,0.0,0.5,,,18.5,12.8,,-4.0,188.7,140.1,,,,,,,,,,+16,,+16,,,+15.2,+15.8,+13,+0.5,+4.998,,,,,,+3.3,+15.9,,,,,
236.69,1,12,2022-09-24 10:28:17,+55.36717,+10.03037,180,0.0,355.4,-3.8,,,,,10:28:17,+2.4,-1.4,185.4,0.0,+172,+0.0,-0.02,+1.0,99,+8,+16,0.0,30.04,+358,,,138,,,,,0,0,,,,,,,+0,,,+0,,,,,1,0,0,"7000",3,+16,0,0,30.1,0.0,,0.0,0.5,,,18.5,12.8,,-4.0,188.7,140.1,,,,,,,,,,+16,,+16,,,+15.2,+15.8,+13,+0.5,+4.998,,,,,,+3.3,+15.9,,,,,
237.69,1,12,2022-09-24 10:28:18,+55.36717,+10.03037,180,0.0,355.4,-3.8,,,,,10:28:18,+2.5,-1.4,185.4,0.0,+172,+0.0,-0.02,+1.0,99,+23,+16,0.0,30.04,+358,,,138,,,,,0,0,,,,,,,+0,,,+0,,,,,1,0,0,"7000",3,+16,0,0,30.1,0.0,,0.0,0.5,,,18.5,12.8,,-4.0,188.7,140.1,,,,,,,,,,+16,,+16,,,+15.2,+15.8,+13,+0.5,+4.998,,,,,,+3.3,+15.9,,,,,
238.69,1,12,2022-09-24 10:28:19,+55.36717,+10.03037,180,0.0,355.4,-3.8,,,,,10:28:19,+2.5,-1.4,185.4,0.0,+172,+0.0,-0.02,+1.0,99,+32,+16,0.0,30.04,+359,,,138,,,,,0,0,,,,,,,+0,,,+0,,,,,1,0,0,"7000",3,+16,0,0,30.1,0.0,,0.0,0.5,,,18.5,12.8,,-4.0,188.7,140.1,,,,,,,,,,+16,,+16,,,+15.2,+15.8,+13,+0.5,+4.998,,,,,,+3.3,+15.9,,,,,
239.69,1,12,2022-09-24 10:28:20,+55.36717,+10.03037,180,0.0,355.4,-3.8,,,,,10:28:20,+2.5,-1.4,185.4,0.0,+172,+0.0,-0.02,+1.0,99,+4,+16,0.0,30.04,+358,,,138,,,,,0,0,,,,,,,+0,,,+0,,,,,1,0,0,"7000",3,+16,0,0,30.1,0.0,,0.0,0.5,,,18.5,12.8,,-4.0,188.7,140.1,,,,,,,,,,+16,,+16,,,+15.2,+15.8,+13,+0.5,+4.998,,,,,,+3.3,+15.9,,,,,
240.69,1,12,2022-09-24 10:28:21,+55.36717,+10.03037,180,0.0,355.4,-3.8,,,,,10:28:21,+2.5,-1.4,185.4,0.0,+172,+0.0,-0.02,+1.0,99,+31,+16,0.0,30.04,+358,,,138,,,,,0,0,,,,,,,+0,,,+0,,,,,1,0,0,"7000",3,+16,0,0,30.1,0.0,,0.0,0.5,,,18.5,12.8,,-4.0,188.7,140.1,,,,,,,,,,+16,,+16,,,+15.2,+15.8,+13,+0.5,+4.998,,,,,,+3.3,+15.9,,,,,
241.69,1,12,2022-09-24 10:28:22,+55.36717,+10.03037,180,0.0,355.4,-3.8,,,,,10:28:22,+2.5,-1.3,185.4,0.0,+172,+0.0,-0.02,+1.0,99,-10,+16,0.0,30.04,+358,,,138,,,,,0,0,,,,,,,+0,,,+0,,,,,1,0,0,"7000",3,+16,0,0,30.1,0.0,,0.0,0.5,,,18.5,12.8,,-4.0,188.7,140.1,,,,,,,,,,+16,,+16,,,+15.2,+15.8,+13,+0.5,+4.998,,,,,,+3.3,+15.9,,,,,
242.69,1,12,2022-09-24 10:28:23,+55.36717,+10.03037,180,0.0,355.4,-3.8,,,,,10:28:23,+2.5,-1.4,185.4,0.0,+172,+0.0,-0.02,+1.0,99,+2,+16,0.0,30.04,+350,,,138,,,,,0,0,,,,,,,+0,,,+0,,,,,1,0,0,"7000",3,+16,0,0,30.1,0.0,,0.0,0.5,,,18.5,12.8,,-4.0,188.7,140.1,,,,,,,,,,+16,,+16,,,+15.2,+15.8,+13,+0.5,+4.998,,,,,,+3.3,+15.9,,,,,
243.69,1,12,2022-09-24 10:28:24,+55.36717,+10.03037,180,0.0,355.4,-3.8,,,,,10:28:24,+2.4,-1.4,185.4,0.0,+172,+0.0,-0.02,+1.0,99,+3,+16,0.0,30.04,+350,,,138,,,,,0,0,,,,,,,+0,,,+0,,,,,1,0,0,"7000",3,+16,0,0,30.1,0.0,,0.0,0.5,,,18.5,12.8,,-4.0,188.7,140.1,,,,,,,,,,+16,,+16,,,+15.2,+15.8,+13,+0.5,+4.998,,,,,,+3.3,+15.9,,,,,
244.69,1,12,2022-09-24 10:28:25,+55.36717,+10.03037,180,0.0,355.4,-3.8,,,,,10:28:25,+2.5,-1.4,185.5,0.0,+172,+0.1,-0.02,+1.0,99,+8,+16,0.0,30.04,+350,,,138,,,,,0,0,,,,,,,+0,,,+0,,,,,1,0,0,"7000",3,+16,0,0,30.1,0.0,,0.0,0.5,,,18.5,12.8,,-4.0,188.7,140.1,,,,,,,,,,+16,,+16,,,+15.2,+15.8,+13,+0.5,+4.998,,,,,,+3.3,+15.9,,,,,
245.69,1,12,2022-09-24 10:28:26,+55.36717,+10.03037,179,0.0,355.4,-3.8,,,,,10:28:26,+2.4,-1.3,185.4,0.0,+172,+0.1,-0.02,+1.0,99,+11,+16,0.0,30.04,+358,,,138,,,,,0,0,,,,,,,+0,,,+0,,,,,1,0,0,"7000",3,+16,0,0,30.1,0.0,,0.0,0.5,,,18.5,12.8,,-4.0,188.7,140.1,,,,,,,,,,+16,,+16,,,+15.2,+15.8,+13,+0.5,+4.998,,,,,,+3.3,+15.9,,,,,
246.69,1,12,2022-09-24 10:28:27,+55.36717,+10.03037,179,0.0,355.4,-3.8,,,,,10:28:27,+2.5,-1.3,185.4,0.0,+172,+0.1,-0.02,+1.0,99,+11,+16,0.0,30.04,+358,,,138,,,,,0,0,,,,,,,+0,,,+0,,,,,1,0,0,"7000",3,+16,0,0,30.1,0.0,,0.0,0.5,,,18.5,12.8,,-4.0,188.7,140.1,,,,,,,,,,+16,,+16,,,+15.2,+15.8,+13,+0.5,+4.998,,,,,,+3.3,+15.9,,,,,
247.69,1,12,2022-09-24 10:28:28,+55.36717,+10.03037,179,0.0,355.4,-3.8,,,,,10:28:28,+2.5,-1.2,185.4,0.0,+172,+0.1,-0.02,+1.0,99,+14,+16,0.0,30.04,+358,,,138,,,,,0,0,,,,,,,+0,,,+0,,,,,1,0,0,"7000",3,+16,0,0,30.1,0.0,,0.0,0.5,,,18.5,12.8,,-4.0,188.7,140.1,,,,,,,,,,+16,,+16,,,+15.2,+15.8,+13,+0.5,+4.998,,,,,,+3.3,+15.9,,,,,
248.69,1,12,2022-09-24 10:28:29,+55.36717,+10.03037,179,0.0,355.4,-3.8,,,,,10:28:29,+2.5,-1.3,185.3,0.0,+172,+0.1,-0.02,+1.0,99,+1,+16,0.0,30.04,+350,,,138,,,,,0,0,,,,,,,+0,,,+0,,,,,1,0,0,"7000",3,+16,0,0,30.1,0.0,,0.0,0.5,,,18.5,12.8,,-4.0,188.7,140.1,,,,,,,,,,+16,,+16,,,+15.2,+15.8,+13,+0.5,+4.998,,,,,,+3.3,+15.9,,,,,
249.69,1,12,2022-09-24 10:28:30,+55.36717,+10.03037,179,0.0,355.4,-3.8,,,,,10:28:30,+2.5,-1.2,185.3,0.0,+172,+0.1,-0.02,+1.0,99,+5,+16,0.0,30.04,+350,,,138,,,,,0,0,,,,,,,+0,,,+0,,,,,1,0,0,"7000",3,+16,0,0,30.1,0.0,,0.0,0.5,,,18.5,12.8,,-4.0,188.7,140.1,,,,,,,,,,+16,,+16,,,+15.2,+15.8,+13,+0.5,+4.998,,,,,,+3.3,+15.9,,,,,
250.69,1,12,2022-09-24 10:28:31,+55.36717,+10.03037,179,0.0,355.4,-3.8,,,,,10:28:31,+2.5,-1.2,185.2,0.0,+172,+0.1,-0.02,+1.0,99,-1,+16,0.0,30.04,+350,,,138,,,,,0,0,,,,,,,+0,,,+0,,,,,1,0,0,"7000",3,+16,0,0,30.1,0.0,,0.0,0.5,,,18.5,12.8,,-4.0,188.7,140.1,,,,,,,,,,+16,,+16,,,+15.2,+15.8,+13,+0.5,+4.998,,,,,,+3.3,+15.9,,,,,
251.69,1,12,2022-09-24 10:28:32,+55.36717,+10.03037,178,0.0,355.4,-3.8,,,,,10:28:32,+2.5,-1.2,185.2,0.0,+172,+0.1,-0.02,+1.0,99,-2,+16,0.0,30.04,+359,,,138,,,,,0,0,,,,,,,+0,,,+0,,,,,1,0,0,"7000",3,+16,0,0,30.1,0.0,,0.0,0.5,,,18.5,12.8,,-4.0,188.7,140.1,,,,,,,,,,+16,,+16,,,+15.2,+15.8,+13,+0.5,+4.998,,,,,,+3.3,+15.9,,,,,
252.69,1,12,2022-09-24 10:28:33,+55.36717,+10.03038,178,0.0,355.4,-3.8,,,,,10:28:33,+2.5,-1.2,185.2,0.0,+172,+0.1,-0.02,+1.0,99,+12,+16,0.0,30.04,+358,,,138,,,,,0,0,,,,,,,+0,,,+0,,,,,1,0,0,"7000",3,+16,0,0,30.1,0.0,,0.0,0.5,,,18.5,12.8,,-4.0,188.7,140.1,,,,,,,,,,+16,,+16,,,+15.2,+15.8,+13,+0.5,+4.998,,,,,,+3.3,+15.9,,,,,
253.69,1,12,2022-09-24 10:28:34,+55.36717,+10.03038,178,0.0,355.4,-3.8,,,,,10:28:34,+2.5,-1.2,185.1,0.0,+172,+0.1,-0.02,+1.0,99,+2,+16,0.0,30.04,+358,,,138,,,,,0,0,,,,,,,+0,,,+0,,,,,1,0,0,"7000",3,+16,0,0,30.1,0.0,,0.0,0.5,,,18.5,12.8,,-4.0,188.7,140.1,,,,,,,,,,+16,,+16,,,+15.2,+15.8,+13,+0.5,+4.998,,,,,,+3.3,+15.9,,,,,
254.69,1,12,2022-09-24 10:28:35,+55.36717,+10.03038,178,0.0,355.4,-3.8,,,,,10:28:35,+2.5,-1.2,185.1,0.0,+172,+0.1,-0.02,+1.0,99,+5,+16,0.0,30.04,+358,,,138,,,,,0,0,,,,,,,+0,,,+0,,,,,1,0,0,"7000",3,+16,0,0,30.1,0.0,,0.0,0.5,,,18.5,12.8,,-4.0,188.7,140.1,,,,,,,,,,+16,,+16,,,+15.2,+15.8,+13,+0.5,+4.998,,,,,,+3.3,+15.9,,,,,
255.69,1,12,2022-09-24 10:28:36,+55.36717,+10.03038,178,0.0,355.4,-3.8,,,,,10:28:36,+2.5,-1.2,185.1,0.0,+172,+0.1,-0.02,+1.0,99,-3,+16,0.0,30.04,+358,,,138,,,,,0,0,,,,,,,+0,,,+0,,,,,1,0,0,"7000",3,+16,0,0,30.1,0.0,,0.0,0.5,,,18.5,12.8,,-4.0,188.7,140.1,,,,,,,,,,+16,,+16,,,+15.2,+15.8,+13,+0.5,+4.998,,,,,,+3.3,+15.9,,,,,
256.69,1,12,2022-09-24 10:28:37,+55.36718,+10.03038,178,0.0,355.4,-3.8,,,,,10:28:37,+2.5,-1.2,185.1,0.0,+172,+0.0,-0.02,+1.0,99,-21,+16,0.0,30.04,+358,,,138,,,,,0,0,,,,,,,+0,,,+0,,,,,1,0,0,"7000",3,+16,0,0,30.1,0.0,,0.0,0.5,,,18.5,12.8,,-4.0,188.7,140.1,,,,,,,,,,+16,,+16,,,+15.2,+15.8,+13,+0.5,+4.998,,,,,,+3.3,+15.9,,,,,
257.69,1,12,2022-09-24 10:28:38,+55.36718,+10.03038,177,0.0,355.4,-3.8,,,,,10:28:38,+2.5,-1.2,185.1,0.0,+172,+0.1,-0.02,+1.0,99,-8,+16,0.0,30.04,+358,,,138,,,,,0,0,,,,,,,+0,,,+0,,,,,1,0,0,"7000",3,+16,0,0,30.1,0.0,,0.0,0.5,,,18.5,12.8,,-4.0,188.7,140.1,,,,,,,,,,+16,,+16,,,+15.2,+15.8,+13,+0.5,+4.998,,,,,,+3.3,+15.9,,,,,
258.69,1,12,2022-09-24 10:28:39,+55.36718,+10.03038,177,0.0,355.4,-3.8,,,,,10:28:39,+2.5,-1.1,185.1,0.0,+172,+0.1,-0.02,+1.0,99,+11,+16,0.0,30.04,+358,,,138,,,,,0,0,,,,,,,+0,,,+0,,,,,
0.06,1,12,2022-09-25 09:44:11,+55.36697,+10.03013,143,0.1,190.2,-3.3,,,,,09:44:11,,,,,,,,,,,+13,,,,,,138,,101.0,+0,,0,0,,,,,,,,,,,,,,,1,0,0,"0000",,,0,0,,,,0.0,,,,18.5,13.5,,+7.7,188.7,140.1,,,,,,,,,,+493,,+443,,,+24.7,+25.2,+13,+4.9,+4.998,,,,,,+78.2,+16.8,,,,,
1.06,1,12,2022-09-25 09:44:12,+55.36697,+10.03013,142,0.0,190.2,-3.8,,,,,09:44:11,+1.5,+0.7,167.8,0.0,+166,+0.1,+0.01,+1.0,99,+8,+13,0.0,30.04,-44,,,138,,101.0,+0,,0,0,,,,,,,+0,,,-5,,,,,1,0,0,"7000",,,2362,2362,,5.0,,5.0,,,,18.5,13.4,,+7.4,188.7,140.1,,,,,,,,,,+498,,+447,,,+25.5,+25.9,+13,+4.8,+4.998,,,,,,+78.1,+16.9,,,,,
2.06,1,12,2022-09-25 09:44:13,+55.36697,+10.03013,142,0.1,190.2,-3.8,,,,,09:44:12,+1.4,+0.7,167.7,0.0,+166,+0.1,+0.02,+1.0,99,+5,+13,0.0,30.04,-44,,,138,,,,,0,0,,,,,,,+0,,,-6,,,,,1,0,0,"7000",78,+17,2368,2368,15.9,5.1,,5.1,4.9,,,18.5,13.5,,+7.4,188.7,140.1,,,,,,,,,,+499,,+449,,,+25.9,+26.4,+13,+4.9,+4.998,,,,,,+78.1,+17.0,,,,,
3.06,1,12,2022-09-25 09:44:14,+55.36696,+10.03013,142,0.0,190.2,-3.8,,,,,09:44:13,+1.5,+0.6,167.8,0.0,+165,+0.1,+0.01,+1.0,99,-15,+13,0.0,30.04,-45,,,138,,,,,0,0,,,,,,,+0,,,-6,,,,,1,0,0,"7000",78,+17,2358,2358,15.9,5.1,,5.1,4.8,,,18.5,13.5,,+7.3,188.7,140.1,,,,,,,,,,+500,,+450,,,+26.2,+26.7,+13,+4.8,+4.998,,,,,,+78.0,+17.1,,,,,
4.06,1,12,2022-09-25 09:44:15,+55.36696,+10.03013,141,0.0,190.2,-3.8,,,,,09:44:14,+1.5,+0.7,167.7,0.0,+165,+0.0,+0.01,+1.1,99,-28,+13,0.0,30.04,-45,,,138,,,,,0,0,,,,,,,+0,,,-7,,,,,1,0,0,"7000",78,+17,2364,2364,15.9,5.2,,5.2,4.8,,,18.5,13.4,,+7.2,188.7,140.1,,,,,,,,,,+501,,+452,,,+26.5,+27.0,+13,+4.8,+4.998,,,,,,+77.9,+17.1,,,,,
5.06,1,12,2022-09-25 09:44:16,+55.36696,+10.03012,141,0.0,190.2,-3.8,,,,,09:44:15,+1.5,+0.7,167.8,0.0,+165,+0.0,+0.01,+1.1,99,+5,+13,0.0,30.04,-45,,,138,,,,,0,0,,,,,,,+0,,,-7,,,,,1,1,0,"7000",78,+17,2357,2357,15.9,5.2,,5.2,4.8,,,18.5,13.4,,+7.1,188.7,140.1,,,,,,,,,,+502,,+453,,,+26.9,+27.4,+13,+4.8,+4.998,,,,,,+77.9,+17.2,,,,,
6.06,1,12,2022-09-25 09:44:17,+55.36696,+10.03012,140,0.0,190.2,-3.8,,,,,09:44:16,+1.4,+0.7,167.7,0.0,+164,+0.0,+0.01,+1.0,99,-49,+13,0.0,30.04,-46,,,138,,,,,0,0,,,,,,,+0,,,-8,,,,,1,0,0,"7000",78,+17,2360,2360,15.9,5.2,,5.2,4.9,,,18.5,13.5,,+7.2,188.7,140.1,,,,,,,,,,+504,,+454,,,+27.4,+27.8,+13,+4.9,+4.998,,,,,,+77.8,+17.3,,,,,
7.06,1,12,2022-09-25 09:44:18,+55.36696,+10.03012,140,0.0,190.2,-3.8,,,,,09:44:17,+1.4,+0.7,167.7,0.0,+163,+0.0,+0.01,+1.0,99,-18,+13,0.0,30.04,-46,,,138,,,,,0,0,,,,,,,-1,,,-9,,,,,1,0,0,"7000",78,+17,2348,2348,15.9,5.2,,5.2,4.9,,,18.5,13.4,,+6.7,188.7,140.1,,,,,,,,,,+506,,+456,,,+27.7,+28.1,+13,+4.9,+4.998,,,,,,+77.7,+17.4,,,,,
8.06,1,12,2022-09-25 09:44:19,+55.36696,+10.03012,140,0.0,190.2,-3.8,,,,,09:44:18,+1.4,+0.7,167.8,0.0,+163,+0.1,+0.01,+1.0,99,+10,+13,0.0,30.04,-46,,,138,,,,,0,0,,,,,,,-1,,,-9,,,,,1,0,0,"7000",78,+17,2342,2342,15.9,5.2,,5.2,4.8,,,18.4,13.4,,+6.3,188.7,140.1,,,,,,,,,,+508,,+457,,,+28.1,+28.5,+13,+4.8,+4.998,,,,,,+77.6,+17.4,,,,,
9.06,1,12,2022-09-25 09:44:20,+55.36696,+10.03012,140,0.0,190.2,-3.8,,,,,09:44:19,+1.4,+0.7,167.8,0.0,+163,+0.0,+0.01,+1.0,99,+29,+13,0.0,30.04,-48,,,138,,,,,0,0,,,,,,,-1,,,-9,,,,,1,0,0,"7000",78,+18,2353,2353,15.9,5.2,,5.2,4.8,,,18.4,13.4,,+6.1,188.7,140.1,,,,,,,,,,+509,,+459,,,+28.5,+28.8,+13,+4.8,+4.998,,,,,,+77.5,+17.5,,,,,
10.06,1,12,2022-09-25 09:44:21,+55.36696,+10.03012,140,0.0,190.2,-3.8,,,,,09:44:20,+1.5,+0.7,167.8,0.0,+163,+0.0,+0.01,+1.0,99,+20,+13,0.0,30.04,-48,,,138,,,,,0,0,,,,,,,-1,,,-9,,,,,1,0,0,"7000",77,+18,2352,2352,16.0,5.2,,5.2,4.8,,,18.4,13.4,,+6.3,188.7,140.1,,,,,,,,,,+510,,+460,,,+28.8,+29.1,+13,+4.8,+4.998,,,,,,+77.4,+17.6,,,,,
11.06,1,12,2022-09-25 09:44:22,+55.36696,+10.03012,140,0.0,190.2,-3.8,,,,,09:44:21,+1.4,+0.6,167.8,0.0,+163,+0.0,+0.01,+1.0,99,+34,+13,0.0,30.04,-48,,,138,,,,,0,0,,,,,,,-1,,,-11,,,,,1,0,0,"7000",77,+18,2320,2320,16.0,5.2,,5.2,4.8,,,18.4,13.5,,+6.5,188.7,140.1,,,,,,,,,,+511,,+462,,,+29.2,+29.3,+13,+4.8,+4.998,,,,,,+77.4,+17.6,,,,,
12.06,1,12,2022-09-25 09:44:23,+55.36696,+10.03012,139,0.0,190.2,-3.8,,,,,09:44:22,+1.4,+0.7,167.8,0.0,+163,+0.0,+0.01,+1.0,99,+65,+13,0.0,30.04,-48,,,138,,,,,0,0,,,,,,,-1,,,-12,,,,,1,0,0,"7000",77,+18,2370,2370,16.0,5.1,,5.1,4.8,,,18.4,13.5,,+6.7,188.7,140.1,,,,,,,,,,+512,,+463,,,+29.5,+29.6,+13,+4.8,+4.998,,,,,,+77.1,+17.7,,,,,
13.06,1,12,2022-09-25 09:44:24,+55.36696,+10.03012,139,0.0,190.2,-3.8,,,,,09:44:23,+1.5,+0.7,167.8,0.0,+163,+0.1,+0.01,+1.0,99,+44,+13,0.0,30.04,-48,,,138,,,,,0,0,,,,,,,-1,,,-13,,,,,1,0,0,"7000",77,+18,2329,2329,15.9,5.0,,5.0,4.8,,,18.4,13.5,,+6.8,188.7,140.1,,,,,,,,,,+513,,+464,,,+29.9,+29.9,+13,+4.8,+4.998,,,,,,+77.2,+17.8,,,,,
14.06,1,12,2022-09-25 09:44:25,+55.36696,+10.03012,139,0.0,190.2,-3.8,,,,,09:44:24,+1.5,+0.6,167.8,0.0,+163,+0.1,+0.01,+0.9,99,+30,+13,0.0,30.04,-48,,,138,,,,,0,0,,,,,,,-1,,,-16,,,,,1,0,0,"7000",77,+18,2335,2335,16.0,4.9,,4.9,4.9,,,18.4,13.5,,+6.9,188.7,140.1,,,,,,,,,,+515,,+466,,,+30.2,+30.2,+13,+4.9,+4.998,,,,,,+77.0,+17.9,,,,,
15.06,1,12,2022-09-25 09:44:26,+55.36696,+10.03012,140,0.0,190.2,-3.8,,,,,09:44:25,+1.5,+0.6,167.8,0.0,+163,+0.1,+0.01,+1.0,99,+69,+13,0.0,30.04,-49,,,138,,,,,0,0,,,,,,,-1,,,-17,,,,,1,0,0,"7000",77,+18,2339,2339,16.0,4.8,,4.8,4.9,,,18.4,13.5,,+6.9,188.7,140.1,,,,,,,,,,+516,,+468,,,+30.5,+30.5,+13,+4.9,+4.998,,,,,,+76.9,+18.0,,,,,
16.06,1,12,2022-09-25 09:44:27,+55.36696,+10.03012,140,0.0,190.2,-3.8,,,,,09:44:26,+1.4,+0.7,167.9,0.0,+163,+0.0,+0.01,+1.0,99,+45,+13,0.0,30.04,-49,,,138,,,,,0,0,,,,,,,-1,,,-18,,,,,1,0,0,"7000",77,+18,2363,2363,16.0,4.8,,4.8,4.9,,,18.4,13.5,,+6.9,188.7,140.1,,,,,,,,,,+517,,+468,,,+30.8,+30.9,+13,+4.9,+4.998,,,,,,+76.7,+18.0,,,,,
17.06,1,12,2022-09-25 09:44:28,+55.36696,+10.03012,140,0.0,190.2,-3.8,,,,,09:44:27,+1.5,+0.7,167.9,0.0,+163,+0.1,+0.01,+1.0,99,+30,+13,0.0,30.04,-49,,,138,,,,,0,0,,,,,,,-1,,,-20,,,,,1,0,0,"7000",77,+18,2345,2345,16.0,4.7,,4.7,4.9,,,18.4,13.5,,+6.8,188.7,140.1,,,,,,,,,,+519,,+469,,,+31.2,+31.3,+13,+4.9,+4.998,,,,,,+76.6,+18.1,,,,,
18.06,1,12,2022-09-25 09:44:29,+55.36696,+10.03012,140,0.0,190.2,-3.8,,,,,09:44:28,+1.4,+0.7,167.9,0.0,+163,+0.1,+0.01,+1.1,99,+33,+13,0.0,30.04,-48,,,138,,,,,0,0,,,,,,,-1,,,-21,,,,,1,0,0,"7000",76,+18,2360,2360,16.0,4.7,,4.7,4.9,,,18.4,13.5,,+6.9,188.7,140.1,,,,,,,,,,+520,,+470,,,+31.6,+31.6,+13,+4.9,+4.998,,,,,,+76.4,+18.2,,,,,
19.06,1,12,2022-09-25 09:44:30,+55.36696,+10.03012,140,0.0,190.2,-3.8,,,,,09:44:29,+1.5,+0.7,167.9,0.0,+163,+0.1,+0.01,+1.0,99,+10,+13,0.0,30.04,-48,,,138,,,,,0,0,,,,,,,-1,,,-23,,,,,1,0,0,"7000",76,+18,2345,2345,16.0,4.6,,4.6,4.8,,,18.4,13.5,,+6.3,188.7,140.1,,,,,,,,,,+520,,+471,,,+32.0,+31.9,+13,+4.8,+4.998,,,,,,+76.4,+18.3,,,,,
20.06,1,12,2022-09-25 09:44:31,+55.36696,+10.03012,140,0.0,190.2,-3.8,,,,,09:44:30,+1.5,+0.6,167.9,0.0,+163,+0.1,+0.01,+1.0,99,-31,+13,0.0,29.74,-48,,,138,,,,,0,0,,,,,,,-1,,,-25,,,,,1,0,0,"7000",76,+18,2342,2342,16.0,4.7,,4.7,4.8,,,18.4,13.5,,+6.4,188.7,140.1,,,,,,,,,,+521,,+473,,,+32.4,+32.2,+13,+4.8,+4.998,,,,,,+76.2,+18.4,,,,,
21.06,1,12,2022-09-25 09:44:32,+55.36696,+10.03012,141,0.0,190.2,-3.8,,,,,09:44:31,+1.5,+0.6,167.9,0.0,+163,+0.1,+0.01,+1.1,99,-2,+13,0.0,29.89,-48,,,138,,,,,0,0,,,,,,,-1,,,-26,,,,,1,0,0,"7000",76,+18,2367,2367,16.0,4.8,,4.8,4.7,,,18.4,13.5,,+6.5,188.7,140.1,,,,,,,,,,+522,,+474,,,+32.7,+32.5,+13,+4.7,+4.998,,,,,,+75.7,+18.5,,,,,
22.06,1,12,2022-09-25 09:44:33,+55.36696,+10.03012,141,0.0,190.2,-3.8,,,,,09:44:32,+1.5,+0.7,167.8,0.0,+163,+0.0,+0.01,+0.9,99,-18,+13,0.0,29.89,-48,,,138,,,,,0,0,,,,,,,-1,,,-29,,,,,1,0,0,"7000",76,+19,2331,2331,16.0,4.8,,4.8,4.8,,,18.4,13.5,,+6.7,188.7,140.1,,,,,,,,,,+524,,+475,,,+33.0,+32.8,+13,+4.8,+4.998,,,,,,+76.0,+18.6,,,,,
23.06,1,12,2022-09-25 09:44:34,+55.36696,+10.03012,142,0.0,190.2,-3.8,,,,,09:44:33,+1.4,+0.6,167.8,0.0,+163,+0.0,+0.01,+1.0,99,+5,+13,0.0,29.89,-48,,,138,,,,,0,0,,,,,,,-1,,,-29,,,,,1,0,0,"7000",76,+19,2341,2341,16.0,4.8,,4.8,4.8,,,18.4,13.5,,+6.7,188.7,140.1,,,,,,,,,,+525,,+476,,,+33.2,+33.2,+13,+4.8,+4.998,,,,,,+75.6,+18.6,,,,,
24.06,1,12,2022-09-25 09:44:35,+55.36696,+10.03013,142,0.0,190.2,-3.8,,,,,09:44:34,+1.5,+0.7,167.9,0.0,+163,+0.0,+0.01,+1.0,99,-17,+13,0.0,29.89,-48,,,138,,,,,0,0,,,,,,,-1,,,-30,,,,,1,0,0,"7000",75,+19,2367,2367,16.0,4.8,,4.8,4.9,,,18.4,13.5,,+6.7,188.7,140.1,,,,,,,,,,+526,,+478,,,+33.5,+33.4,+13,+4.9,+4.998,,,,,,+75.2,+18.7,,,,,
25.06,1,12,2022-09-25 09:44:36,+55.36696,+10.03013,142,0.0,190.2,-3.8,,,,,09:44:35,+1.5,+0.7,167.8,0.0,+163,+0.0,+0.01,+1.0,99,-6,+13,0.0,29.89,-48,,,138,,,,,0,0,,,,,,,-1,,,-31,,,,,1,0,0,"7000",75,+19,2337,2337,16.0,4.9,,4.9,4.8,,,18.4,13.5,,+6.6,188.7,140.1,,,,,,,,,,+527,,+478,,,+33.9,+33.6,+13,+4.8,+4.998,,,,,,+75.3,+18.8,,,,,
26.06,1,12,2022-09-25 09:44:37,+55.36696,+10.03013,142,0.0,190.2,-3.8,,,,,09:44:36,+1.5,+0.7,167.9,0.0,+163,+0.0,+0.01,+1.1,99,-48,+13,0.0,29.89,-48,,,138,,,,,0,0,,,,,,,-1,,,-31,,,,,1,0,0,"7000",75,+19,2345,2345,16.1,4.9,,4.9,4.8,,,18.4,13.5,,+6.7,188.7,140.1,,,,,,,,,,+528,,+479,,,+34.2,+33.9,+13,+4.8,+4.998,,,,,,+75.0,+18.9,,,,,
27.06,1,12,2022-09-25 09:44:38,+55.36696,+10.03013,143,0.0,190.2,-3.8,,,,,09:44:37,+1.5,+0.7,167.8,0.0,+163,+0.0,+0.01,+1.0,99,-65,+13,0.0,29.89,-48,,,138,,,,,0,0,,,,,,,-1,,,-33,,,,,1,0,0,"7000",74,+19,2357,2357,16.0,4.7,,4.7,4.8,,,18.4,13.5,,+6.6,188.7,140.1,,,,,,,,,,+529,,+480,,,+34.6,+34.2,+13,+4.8,+4.998,,,,,,+74.4,+19.0,,,,,
28.06,1,12,2022-09-25 09:44:39,+55.36696,+10.03013,143,0.0,190.2,-3.8,,,,,09:44:38,+1.4,+0.7,167.9,0.0,+163,+0.1,+0.01,+1.0,99,-65,+13,0.0,29.89,-48,,,138,,,,,0,0,,,,,,,-1,,,-33,,,,,1,0,0,"7000",74,+19,2370,2370,16.0,4.7,,4.7,4.9,,,18.4,13.5,,+6.5,188.7,140.1,,,,,,,,,,+531,,+480,,,+34.9,+34.4,+13,+4.9,+4.998,,,,,,+74.2,+19.1,,,,,
29.06,1,12,2022-09-25 09:44:40,+55.36696,+10.03013,144,0.0,190.2,-3.8,,,,,09:44:39,+1.4,+0.7,167.9,0.0,+163,+0.1,+0.01,+1.0,99,-86,+13,0.0,29.89,-46,,,138,,,,,0,0,,,,,,,-1,,,-35,,,,,1,0,0,"7000",74,+19,2382,2382,15.9,4.7,,4.7,4.9,,,18.4,13.5,,+6.5,188.7,140.1,,,,,,,,,,+531,,+481,,,+35.3,+34.7,+13,+4.9,+4.998,,,,,,+73.9,+19.2,,,,,
30.06,1,12,2022-09-25 09:44:41,+55.36696,+10.03013,144,0.0,190.2,-3.8,,,,,09:44:40,+1.4,+0.7,167.8,0.0,+163,+0.0,+0.01,+1.0,99,-17,+13,0.0,29.89,-46,,,138,,,,,0,0,,,,,,,-1,,,-36,,,,,1,0,0,"7000",74,+19,2362,2362,15.9,4.7,,4.7,4.8,,,18.4,13.5,,+6.5,188.7,140.1,,,,,,,,,,+532,,+482,,,+35.6,+35.0,+13,+4.8,+4.998,,,,,,+73.9,+19.3,,,,,
31.06,1,12,2022-09-25 09:44:42,+55.36696,+10.03013,145,0.0,190.2,-3.8,,,,,09:44:41,+1.5,+0.7,167.8,0.0,+163,+0.1,+0.01,+1.0,99,-25,+13,0.0,29.89,-46,,,138,,,,,0,0,,,,,,,-1,,,-37,,,,,1,0,0,"7000",74,+19,2381,2381,15.9,4.6,,4.6,4.8,,,18.4,13.5,,+6.5,188.7,140.1,,,,,,,,,,+532,,+483,,,+35.9,+35.3,+13,+4.8,+4.998,,,,,,+73.5,+19.4,,,,,
32.06,1,12,2022-09-25 09:44:43,+55.36696,+10.03013,145,0.0,190.2,-3.8,,,,,09:44:42,+1.5,+0.7,167.8,0.0,+162,+0.0,+0.01,+1.0,99,-71,+13,0.0,29.89,-48,,,138,,,,,0,0,,,,,,,-1,,,-37,,,,,1,0,0,"7000",73,+19,2382,2382,15.9,4.6,,4.6,4.8,,,18.4,13.5,,+6.4,188.7,140.1,,,,,,,,,,+533,,+484,,,+36.1,+35.6,+13,+4.8,+4.998,,,,,,+73.4,+19.4,,,,,
33.06,1,12,2022-09-25 09:44:44,+55.36696,+10.03013,146,0.0,190.2,-3.8,,,,,09:44:43,+1.5,+0.7,167.7,0.0,+160,+0.0,+0.01,+1.0,99,-82,+13,0.0,29.89,-48,,,138,,,,,0,0,,,,,,,-1,,,-38,,,,,1,0,0,"7000",73,+20,2373,2373,15.9,4.5,,4.5,4.9,,,18.4,13.5,,+6.4,188.7,140.1,,,,,,,,,,+534,,+485,,,+36.4,+35.9,+13,+4.9,+4.998,,,,,,+73.3,+19.5,,,,,
34.06,1,12,2022-09-25 09:44:45,+55.36696,+10.03013,146,0.0,190.2,-3.8,,,,,09:44:44,+1.5,+0.7,167.7,0.0,+159,+0.0,+0.01,+1.0,99,-47,+13,0.0,29.89,-48,,,138,,,,,0,0,,,,,,,-1,,,-38,,,,,1,0,0,"7000",73,+20,2370,2370,15.9,4.5,,4.5,4.9,,,18.4,13.5,,+6.4,188.7,140.1,,,,,,,,,,+536,,+486,,,+36.7,+36.1,+13,+4.9,+4.998,,,,,,+73.1,+19.6,,,,,
35.06,1,12,2022-09-25 09:44:46,+55.36696,+10.03013,147,0.0,190.2,-3.8,,,,,09:44:45,+1.5,+0.7,167.7,0.0,+159,+0.0,+0.01,+1.0,99,-20,+13,0.0,29.89,-53,,,138,,,,,0,0,,,,,,,-1,,,-40,,,,,1,0,0,"7000",73,+20,2380,2380,15.9,4.5,,4.5,4.8,,,18.4,13.5,,+6.4,188.7,140.1,,,,,,,,,,+537,,+487,,,+37.0,+36.4,+13,+4.8,+4.998,,,,,,+72.9,+19.7,,,,,
36.06,1,12,2022-09-25 09:44:47,+55.36696,+10.03013,147,0.0,190.2,-3.8,,,,,09:44:46,+1.5,+0.6,167.8,0.0,+158,+0.1,+0.01,+1.1,99,-41,+13,0.0,29.89,-53,,,138,,,,,0,0,,,,,,,-1,,,-41,,,,,1,0,0,"7000",73,+20,2402,2402,15.9,4.4,,4.4,4.9,,,18.4,13.5,,+6.3,188.7,140.1,,,,,,,,,,+537,,+488,,,+37.3,+36.6,+13,+4.9,+4.998,,,,,,+72.6,+19.8,,,,,
37.06,1,12,2022-09-25 09:44:48,+55.36696,+10.03013,148,0.0,190.2,-3.8,,,,,09:44:47,+1.5,+0.7,167.7,0.0,+158,+0.0,+0.01,+1.0,99,-24,+13,0.0,29.89,-53,,,138,,,,,0,0,,,,,,,-1,,,-41,,,,,1,0,0,"7000",73,+20,2371,2371,15.9,4.4,,4.4,4.9,,,18.4,13.5,,+6.2,188.7,140.1,,,,,,,,,,+538,,+489,,,+37.6,+36.9,+13,+4.9,+4.998,,,,,,+72.6,+19.9,,,,,
38.06,1,12,2022-09-25 09:44:49,+55.36696,+10.03013,149,0.0,190.2,-3.8,,,,,09:44:48,+1.5,+0.8,167.6,0.0,+158,+0.0,+0.01,+1.0,99,+2,+13,0.0,29.89,-54,,,138,,,,,0,0,,,,,,,-1,,,-42,,,,,1,0,0,"7000",72,+20,2388,2388,15.8,4.4,,4.4,4.9,,,18.4,13.5,,+6.3,188.7,140.1,,,,,,,,,,+539,,+490,,,+37.9,+37.2,+13,+4.9,+4.998,,,,,,+72.3,+20.0,,,,,
39.06,1,12,2022-09-25 09:44:50,+55.36696,+10.03013,149,0.0,190.2,-3.8,,,,,09:44:49,+1.5,+0.8,167.6,0.0,+158,+0.0,+0.01,+1.0,99,+15,+13,0.0,29.89,-54,,,138,,,,,0,0,,,,,,,-1,,,-43,,,,,1,0,0,"7000",72,+20,2382,2382,15.9,4.5,,4.5,4.9,,,18.4,13.5,,+6.2,188.7,140.1,,,,,,,,,,+540,,+491,,,+38.1,+37.5,+13,+4.9,+4.998,,,,,,+72.2,+20.1,,,,,
40.06,1,12,2022-09-25 09:44:51,+55.36696,+10.03013,150,0.0,190.2,-3.8,,,,,09:44:50,+1.5,+0.8,167.7,0.0,+158,+0.1,+0.01,+1.0,99,+36,+13,0.0,29.89,-52,,,138,,,,,0,0,,,,,,,-1,,,-44,,,,,1,0,0,"7000",72,+20,2388,2388,15.8,4.5,,4.5,4.9,,,18.4,13.5,,+6.2,188.7,140.1,,,,,,,,,,+540,,+492,,,+38.4,+37.7,+13,+4.9,+4.998,,,,,,+71.9,+20.2,,,,,
41.06,1,12,2022-09-25 09:44:52,+55.36696,+10.03013,151,0.0,190.2,-3.8,,,,,09:44:51,+1.5,+0.7,167.7,0.0,+158,+0.1,+0.01,+1.1,99,+54,+13,0.0,29.89,-52,,,138,,,,,0,0,,,,,,,-1,,,-45,,,,,1,0,0,"7000",72,+20,2416,2416,15.8,4.5,,4.5,4.9,,,18.4,13.5,,+6.1,188.7,140.1,,,,,,,,,,+541,,+494,,,+38.8,+38.0,+13,+4.9,+4.998,,,,,,+71.5,+20.3,,,,,
42.06,1,12,2022-09-25 09:44:53,+55.36696,+10.03013,152,0.0,190.2,-3.8,,,,,09:44:52,+1.5,+0.7,167.8,0.0,+158,+0.0,+0.01,+1.0,99,+39,+13,0.0,29.89,-52,,,138,,,,,0,0,,,,,,,-1,,,-45,,,,,1,0,0,"7000",72,+20,2388,2388,15.9,4.5,,4.5,4.9,,,18.4,13.5,,+6.2,188.7,140.1,,,,,,,,,,+541,,+495,,,+39.3,+38.3,+13,+4.9,+4.998,,,,,,+71.6,+20.5,,,,,
43.06,1,12,2022-09-25 09:44:54,+55.36696,+10.03013,152,0.0,190.2,-3.8,,,,,09:44:53,+1.5,+0.7,167.8,0.0,+158,+0.0,+0.01,+1.1,99,+40,+13,0.0,29.89,-44,,,138,,,,,0,0,,,,,,,-1,,,-45,,,,,1,0,0,"7000",71,+21,2396,2396,15.9,4.5,,4.5,4.9,,,18.4,13.5,,+6.1,188.7,140.1,,,,,,,,,,+542,,+496,,,+39.5,+38.6,+13,+4.9,+4.998,,,,,,+71.3,+20.6,,,,,
44.06,1,12,2022-09-25 09:44:55,+55.36696,+10.03013,152,0.0,190.2,-3.8,,,,,09:44:54,+1.5,+0.7,167.7,0.0,+158,+0.0,+0.01,+1.0,99,+6,+13,0.0,29.89,-44,,,138,,,,,0,0,,,,,,,-1,,,-46,,,,,1,0,0,"7000",71,+21,2376,2376,15.9,4.5,,4.5,4.9,,,18.4,13.5,,+6.1,188.7,140.1,,,,,,,,,,+543,,+496,,,+39.9,+38.9,+13,+4.9,+4.998,,,,,,+71.2,+20.6,,,,,
45.06,1,12,2022-09-25 09:44:56,+55.36696,+10.03013,153,0.0,190.2,-3.8,,,,,09:44:55,+1.5,+0.7,167.7,0.0,+158,+0.0,+0.01,+1.0,99,+18,+13,0.0,29.89,-44,,,138,,,,,0,0,,,,,,,-1,,,-47,,,,,1,0,0,"7000",71,+21,2398,2398,15.9,4.4,,4.4,5.0,,,18.4,13.5,,+6.0,188.7,140.1,,,,,,,,,,+544,,+497,,,+40.2,+39.2,+13,+5.0,+4.998,,,,,,+71.0,+20.8,,,,,
46.06,1,12,2022-09-25 09:44:57,+55.36696,+10.03013,153,0.0,190.2,-3.8,,,,,09:44:56,+1.5,+0.7,167.7,0.0,+158,+0.0,+0.01,+1.0,99,+21,+13,0.0,29.89,-52,,,138,,,,,0,0,,,,,,,-1,,,-47,,,,,1,0,0,"7000",71,+21,2403,2403,15.8,4.4,,4.4,5.0,,,18.4,13.5,,+6.1,188.7,140.1,,,,,,,,,,+545,,+498,,,+40.5,+39.5,+13,+5.0,+4.998,,,,,,+70.7,+20.9,,,,,
47.06,1,12,2022-09-25 09:44:58,+55.36696,+10.03013,154,0.0,190.2,-3.8,,,,,09:44:57,+1.4,+0.6,167.8,0.0,+158,+0.1,+0.01,+0.9,99,+18,+13,0.0,29.89,-52,,,138,,,,,0,0,,,,,,,-1,,,-48,,,,,1,0,0,"7000",71,+21,2367,2367,15.9,4.5,,4.5,4.9,,,18.4,13.5,,+6.1,188.7,140.1,,,,,,,,,,+545,,+499,,,+40.8,+39.7,+13,+4.9,+4.998,,,,,,+70.9,+21.0,,,,,
48.06,1,12,2022-09-25 09:44:59,+55.36696,+10.03013,154,0.0,190.2,-3.8,,,,,09:44:58,+1.5,+0.7,167.8,0.0,+158,+0.1,+0.01,+1.0,99,-3,+13,0.0,29.89,-52,,,138,,,,,0,0,,,,,,,-1,,,-48,,,,,1,0,0,"7000",70,+21,2400,2400,16.0,4.5,,4.5,4.8,,,18.4,13.5,,+6.0,188.7,140.1,,,,,,,,,,+546,,+499,,,+41.0,+40.0,+13,+4.8,+4.998,,,,,,+70.3,+21.1,,,,,
49.06,1,12,2022-09-25 09:45:00,+55.36697,+10.03013,154,0.0,190.2,-3.8,,,,,09:44:59,+1.6,+0.7,167.8,0.0,+158,+0.1,+0.01,+1.0,99,-17,+13,0.0,29.89,-44,,,138,,,,,0,0,,,,,,,-1,,,-49,,,,,1,0,0,"7000",70,+21,2390,2390,15.9,4.5,,4.5,4.9,,,18.4,13.5,,+5.9,188.7,140.1,,,,,,,,,,+547,,+500,,,+41.4,+40.2,+13,+4.9,+4.998,,,,,,+70.3,+21.2,,,,,
50.06,1,12,2022-09-25 09:45:01,+55.36697,+10.03013,155,0.0,190.2,-3.8,,,,,09:45:00,+1.6,+0.6,167.8,0.0,+158,+0.0,+0.02,+1.0,99,-19,+13,0.0,29.89,-44,,,138,,,,,0,0,,,,,,,-1,,,-49,,,,,1,0,0,"7000",70,+21,2375,2375,15.9,4.5,,4.5,4.9,,,18.4,13.5,,+6.0,188.7,140.2,,,,,,,,,,+547,,+501,,,+41.7,+40.4,+13,+4.9,+4.998,,,,,,+70.1,+21.3,,,,,
51.06,1,12,2022-09-25 09:45:02,+55.36697,+10.03013,155,0.0,190.2,-3.8,,,,,09:45:01,+1.6,+0.7,167.7,0.0,+158,+0.0,+0.01,+1.0,99,+19,+13,0.0,29.89,-44,,,138,,,,,0,0,,,,,,,-1,,,-49,,,,,1,0,0,"7000",70,+21,2402,2402,15.9,4.6,,4.6,4.9,,,18.4,13.5,,+6.0,188.7,140.2,,,,,,,,,,+548,,+501,,,+42.1,+40.6,+13,+4.9,+4.998,,,,,,+69.8,+21.4,,,,,
52.06,1,12,2022-09-25 09:45:03,+55.36697,+10.03013,155,0.0,190.2,-3.8,,,,,09:45:02,+1.5,+0.7,167.7,0.0,+158,+0.0,+0.01,+0.9,99,+33,+13,0.0,29.89,-42,,,138,,,,,0,0,,,,,,,-1,,,-49,,,,,1,0,0,"7000",70,+21,2392,2392,15.9,4.6,,4.6,4.9,,,18.4,13.5,,+5.9,188.7,140.2,,,,,,,,,,+548,,+501,,,+42.5,+40.9,+13,+4.9,+4.998,,,,,,+69.6,+21.5,,,,,
53.06,1,12,2022-09-25 09:45:04,+55.36697,+10.03013,156,0.0,190.2,-3.8,,,,,09:45:03,+1.5,+0.7,167.7,0.0,+158,+0.1,+0.01,+1.0,99,+52,+13,0.0,29.89,-44,,,138,,,,,0,0,,,,,,,-1,,,-49,,,,,1,0,0,"7000",70,+22,2358,2358,15.9,4.6,,4.6,4.9,,,18.4,13.5,,+5.9,188.7,140.2,,,,,,,,,,+548,,+502,,,+42.9,+41.1,+13,+4.9,+4.998,,,,,,+69.8,+21.6,,,,,
54.06,1,12,2022-09-25 09:45:05,+55.36697,+10.03013,156,0.0,190.2,-3.8,,,,,09:45:04,+1.5,+0.8,167.6,0.0,+158,+0.1,+0.01,+1.0,99,+50,+13,0.0,29.89,-44,,,138,,,,,0,0,,,,,,,-1,,,-49,,,,,1,0,0,"7000",69,+22,2408,2408,15.9,4.6,,4.6,4.9,,,18.4,13.5,,+5.9,188.7,140.2,,,,,,,,,,+549,,+503,,,+43.2,+41.4,+13,+4.9,+4.998,,,,,,+69.2,+21.7,,,,,
55.06,1,12,2022-09-25 09:45:06,+55.36697,+10.03013,156,0.0,190.2,-3.8,,,,,09:45:05,+1.5,+0.8,167.6,0.0,+158,+0.1,+0.02,+1.0,99,+45,+13,0.0,29.89,-44,,,138,,,,,0,0,,,,,,,-1,,,-49,,,,,1,0,0,"7000",69,+22,2398,2398,15.9,4.6,,4.6,5.0,,,18.4,13.5,,+5.9,188.7,140.2,,,,,,,,,,+549,,+504,,,+43.5,+41.6,+13,+5.0,+4.998,,,,,,+69.2,+21.8,,,,,
56.06,1,12,2022-09-25 09:45:07,+55.36697,+10.03013,156,0.0,190.2,-3.8,,,,,09:45:06,+1.5,+0.8,167.6,0.0,+158,+0.1,+0.01,+1.1,99,+43,+13,0.0,29.89,-42,,,138,,,,,0,0,,,,,,,-1,,,-50,,,,,1,0,0,"7000",69,+22,2384,2384,15.9,4.5,,4.5,4.9,,,18.4,13.5,,+5.9,188.7,140.2,,,,,,,,,,+550,,+504,,,+43.6,+41.9,+13,+4.9,+4.998,,,,,,+69.0,+21.9,,,,,
57.06,1,12,2022-09-25 09:45:08,+55.36697,+10.03013,156,0.0,190.2,-3.8,,,,,09:45:07,+1.5,+0.8,167.6,0.0,+159,+0.1,+0.01,+1.0,99,+50,+13,0.0,29.89,-43,,,138,,,,,0,0,,,,,,,-1,,,-50,,,,,1,0,0,"7000",69,+22,2394,2394,15.9,4.5,,4.5,4.9,,,18.4,13.5,,+5.8,188.7,140.2,,,,,,,,,,+551,,+504,,,+43.9,+42.1,+13,+4.9,+4.998,,,,,,+68.7,+22.0,,,,,
58.06,1,12,2022-09-25 09:45:09,+55.36697,+10.03013,156,0.0,190.2,-3.8,,,,,09:45:08,+1.5,+0.8,167.6,0.0,+160,+0.1,+0.01,+1.0,99,+57,+13,0.0,29.89,-43,,,138,,,,,0,0,,,,,,,-1,,,-50,,,,,1,0,0,"7000",69,+22,2399,2399,16.0,4.5,,4.5,4.9,,,18.4,13.5,,+5.9,188.7,140.2,,,,,,,,,,+551,,+505,,,+44.1,+42.4,+13,+4.9,+4.998,,,,,,+68.5,+22.1,,,,,
59.06,1,12,2022-09-25 09:45:10,+55.36697,+10.03013,156,0.0,190.2,-3.8,,,,,09:45:09,+1.6,+0.8,167.6,0.0,+161,+0.1,+0.01,+1.0,99,+41,+13,0.0,29.89,-43,,,138,,,,,0,0,,,,,,,-1,,,-51,,,,,1,0,0,"7000",68,+22,2408,2408,15.9,4.5,,4.5,4.8,,,18.4,13.5,,+5.9,188.7,140.2,,,,,,,,,,+552,,+506,,,+44.3,+42.6,+13,+4.8,+4.998,,,,,,+68.3,+22.2,,,,,
60.06,1,12,2022-09-25 09:45:11,+55.36697,+10.03013,156,0.0,190.2,-3.8,,,,,09:45:10,+1.5,+0.8,167.6,0.0,+162,+0.1,+0.01,+1.0,99,+55,+13,0.0,29.89,-38,,,138,,,,,0,0,,,,,,,-1,,,-52,,,,,1,0,0,"7000",68,+22,2389,2389,15.9,4.5,,4.5,4.8,,,18.4,13.5,,+5.8,188.7,140.2,,,,,,,,,,+552,,+507,,,+44.6,+42.8,+13,+4.8,+4.998,,,,,,+68.3,+22.3,,,,,
61.06,1,12,2022-09-25 09:45:12,+55.36697,+10.03013,156,0.0,190.2,-3.8,,,,,09:45:11,+1.6,+0.8,167.5,0.0,+162,+0.1,+0.01,+1.0,99,+44,+13,0.0,29.89,-38,,,138,,,,,0,0,,,,,,,-1,,,-52,,,,,1,0,0,"7000",68,+22,2400,2400,15.8,4.5,,4.5,4.9,,,18.4,13.5,,+5.8,188.7,140.2,,,,,,,,,,+552,,+507,,,+44.8,+43.1,+13,+4.9,+4.998,,,,,,+68.0,+22.5,,,,,
62.06,1,12,2022-09-25 09:45:13,+55.36697,+10.03013,156,0.0,190.2,-3.8,,,,,09:45:12,+1.5,+0.7,167.6,0.0,+162,+0.0,+0.01,+1.0,99,+35,+13,0.0,29.89,-38,,,138,,,,,0,0,,,,,,,-1,,,-53,,,,,1,0,0,"7000",68,+23,2415,2415,15.9,4.6,,4.6,4.9,,,18.4,13.5,,+5.8,188.7,140.2,,,,,,,,,,+553,,+508,,,+45.1,+43.3,+13,+4.9,+4.998,,,,,,+67.6,+22.6,,,,,
63.06,1,12,2022-09-25 09:45:14,+55.36697,+10.03013,156,0.0,190.2,-3.8,,,,,09:45:13,+1.5,+0.7,167.6,0.0,+162,+0.1,+0.01,+1.0,99,+20,+13,0.0,29.89,-37,,,138,,,,,0,0,,,,,,,-1,,,-53,,,,,1,0,0,"7000",68,+23,2398,2398,15.8,4.6,,4.6,4.9,,,18.4,13.5,,+5.8,188.7,140.2,,,,,,,,,,+553,,+509,,,+45.3,+43.6,+13,+4.9,+4.998,,,,,,+67.6,+22.7,,,,,
64.06,1,12,2022-09-25 09:45:15,+55.36697,+10.03013,156,0.0,190.2,-3.8,,,,,09:45:14,+1.5,+0.6,167.7,0.0,+163,+0.0,+0.01,+1.0,99,+21,+13,0.0,29.89,-37,,,138,,,,,0,0,,,,,,,+77,,,-136,,,,,1,0,0,"7000",67,+23,2413,2413,15.8,4.6,,4.6,4.9,,,18.4,13.5,,+5.8,188.7,140.2,,,,,,,,,,+554,,+509,,,+45.5,+43.8,+15,+4.9,+4.998,,,,,,+67.3,+22.8,,,,,
65.06,1,12,2022-09-25 09:45:16,+55.36697,+10.03013,156,0.0,190.2,-3.8,,,,,09:45:15,+1.5,+0.7,167.7,0.0,+163,+0.0,+0.02,+1.0,99,+19,+13,0.0,29.89,-37,,,138,,,,,0,0,,,,,,,-124,,,-17,,,,,1,0,0,"7000",67,+23,2402,2402,15.8,4.5,,4.5,4.9,,,18.4,13.5,,+5.7,188.7,140.2,,,,,,,,,,+554,,+509,,,+45.8,+44.0,+12,+4.9,+4.998,,,,,,+67.2,+22.9,,,,,
66.06,1,12,2022-09-25 09:45:17,+55.36697,+10.03013,156,0.0,190.2,-3.8,,,,,09:45:16,+1.5,+0.7,167.8,0.0,+163,+0.1,+0.01,+1.1,99,-18,+13,0.0,29.89,-36,,,138,,,,,0,0,,,,,,,-148,,,-77,,,,,1,0,0,"7000",67,+23,2403,2403,15.8,4.5,,4.5,4.9,,,18.4,13.5,,+5.8,188.7,140.2,,,,,,,,,,+554,,+510,,,+46.0,+44.3,+12,+4.9,+4.998,,,,,,+67.0,+23.0,,,,,
67.06,1,12,2022-09-25 09:45:18,+55.36697,+10.03013,155,0.0,190.2,-3.8,,,,,09:45:17,+1.6,+0.6,167.8,0.0,+163,+0.0,+0.01,+1.0,99,+19,+13,0.0,29.89,-36,,,138,,,,,0,0,,,,,,,-23,,,-20,,,,,1,0,0,"7000",67,+23,2390,2390,15.9,4.5,,4.5,4.8,,,18.4,13.5,,+5.8,188.7,140.2,,,,,,,,,,+555,,+511,,,+46.3,+44.5,+12,+4.8,+4.998,,,,,,+66.9,+23.1,,,,,
68.06,1,12,2022-09-25 09:45:19,+55.36697,+10.03013,155,0.0,190.2,-3.8,,,,,09:45:18,+1.6,+0.6,167.8,0.0,+163,+0.0,+0.01,+1.0,99,+19,+13,0.0,29.89,-36,,,138,,,,,0,0,,,,,,,+142,,,+6,,,,,1,0,0,"7000",67,+23,2408,2408,15.8,4.5,,4.5,4.9,,,18.4,13.5,,+5.7,188.7,140.2,,,,,,,,,,+555,,+511,,,+46.6,+44.8,+12,+4.9,+4.998,,,,,,+66.5,+23.2,,,,,
69.06,1,12,2022-09-25 09:45:20,+55.36697,+10.03013,155,0.0,190.2,-3.8,,,,,09:45:19,+1.5,+0.7,167.8,0.0,+164,+0.0,+0.01,+1.0,99,+11,+13,0.0,29.89,-35,,,138,,,,,0,0,,,,,,,+138,,,+5,,,,,1,0,0,"7000",66,+23,2404,2404,15.8,4.5,,4.5,4.9,,,18.3,13.5,,+5.7,188.7,140.2,,,,,,,,,,+555,,+512,,,+46.8,+45.0,+12,+4.9,+4.998,,,,,,+66.3,+23.3,,,,,
70.06,1,12,2022-09-25 09:45:21,+55.36697,+10.03013,155,0.0,190.2,-3.8,,,,,09:45:20,+1.5,+0.6,167.9,0.0,+164,+0.0,+0.01,+1.0,99,+11,+13,0.0,29.89,-35,,,138,,,,,0,0,,,,,,,-122,,,+3,,,,,1,0,0,"7000",66,+23,2393,2393,15.8,4.5,,4.5,4.9,,,18.3,13.5,,+5.7,188.7,140.2,,,,,,,,,,+555,,+513,,,+47.1,+45.2,+12,+4.9,+4.998,,,,,,+66.3,+23.5,,,,,
71.06,1,12,2022-09-25 09:45:22,+55.36697,+10.03013,154,0.0,190.2,-3.8,,,,,09:45:21,+1.5,+0.6,167.9,0.0,+164,+0.0,+0.01,+1.0,99,+8,+13,0.0,29.89,-34,,,138,,,,,0,0,,,,,,,-119,,,-3,,,,,1,0,0,"7000",66,+24,2401,2401,15.8,4.5,,4.5,4.8,,,18.3,13.5,,+5.7,188.7,140.2,,,,,,,,,,+555,,+513,,,+47.4,+45.4,+12,+4.8,+4.998,,,,,,+66.1,+23.5,,,,,
72.06,1,12,2022-09-25 09:45:23,+55.36697,+10.03013,154,0.0,190.2,-3.8,,,,,09:45:22,+1.5,+0.6,167.8,0.0,+164,+0.0,+0.01,+1.1,99,+11,+13,0.0,29.89,-34,,,138,,,,,0,0,,,,,,,-7,,,-3,,,,,1,0,0,"7000",66,+24,2394,2394,15.8,4.5,,4.5,4.9,,,18.3,13.5,,+5.7,188.7,140.2,,,,,,,,,,+556,,+513,,,+47.6,+45.6,+12,+4.9,+4.998,,,,,,+65.9,+23.7,,,,,
73.06,1,12,2022-09-25 09:45:24,+55.36697,+10.03012,154,0.0,190.2,-3.8,,,,,09:45:23,+1.5,+0.6,167.9,0.0,+164,+0.0,+0.01,+1.0,99,+4,+13,0.0,29.89,-34,,,138,,,,,0,0,,,,,,,-8,,,-54,,,,,1,0,0,"7000",66,+24,2420,2420,15.8,4.5,,4.5,5.0,,,18.3,13.5,,+5.7,188.7,140.2,,,,,,,,,,+556,,+514,,,+47.8,+45.9,+12,+5.0,+4.998,,,,,,+65.5,+23.8,,,,,
74.06,1,12,2022-09-25 09:45:25,+55.36697,+10.03012,154,0.0,190.2,-3.8,,,,,09:45:24,+1.4,+0.6,167.9,0.0,+164,+0.0,+0.01,+1.0,99,+15,+13,0.0,29.89,-24,,,138,,,,,0,0,,,,,,,-8,,,+58,,,,,1,0,0,"7000",65,+24,2412,2412,15.8,4.5,,4.5,5.0,,,18.3,13.5,,+5.7,188.7,140.2,,,,,,,,,,+556,,+514,,,+48.0,+46.2,+12,+5.0,+4.998,,,,,,+65.4,+23.9,,,,,
75.06,1,12,2022-09-25 09:45:26,+55.36697,+10.03012,153,0.0,190.2,-3.8,,,,,09:45:25,+1.5,+0.6,167.9,0.0,+165,+0.1,+0.01,+1.0,99,-2,+13,0.0,29.89,-24,,,138,,,,,0,0,,,,,,,-8,,,+35,,,,,1,0,0,"7000",65,+24,2411,2411,15.8,4.5,,4.5,4.9,,,18.3,13.5,,+5.7,188.7,140.2,,,,,,,,,,+556,,+514,,,+48.2,+46.4,+12,+4.9,+4.998,,,,,,+65.2,+24.0,,,,,
76.06,1,12,2022-09-25 09:45:27,+55.36697,+10.03012,153,0.0,190.2,-3.8,,,,,09:45:26,+1.6,+0.7,167.9,0.0,+165,+0.1,+0.01,+1.0,99,+15,+13,0.0,29.89,-24,,,138,,,,,0,0,,,,,,,-8,,,+27,,,,,1,0,0,"7000",65,+24,2414,2414,15.8,4.4,,4.4,5.0,,,18.3,13.5,,+5.7,188.7,140.2,,,,,,,,,,+557,,+514,,,+48.4,+46.6,+12,+5.0,+4.998,,,,,,+65.0,+24.1,,,,,
77.06,1,12,2022-09-25 09:45:28,+55.36697,+10.03012,153,0.0,190.2,-3.8,,,,,09:45:27,+1.6,+0.7,167.8,0.0,+165,+0.0,+0.01,+1.0,99,-6,+13,0.0,29.89,-23,,,138,,,,,0,0,,,,,,,-8,,,+24,,,,,1,0,0,"7000",65,+24,2410,2410,15.7,4.4,,4.4,5.0,,,18.3,13.5,,+5.6,188.7,140.2,,,,,,,,,,+557,,+515,,,+48.7,+46.8,+12,+5.0,+4.998,,,,,,+64.8,+24.2,,,,,
